$GPVTG,193.10,T,,M,0.96,N,1.79,K,A*37
$GPGGA,164434.000,3012.5753,N,09201.3525,W,1,4,2.69,23.3,M,-25.6,M,,*56
$GPGSA,A,3,22,29,24,18,,,,,,,,,2.84,2.69,0.92*0E
$GPRMC,164434.000,A,3012.5753,N,09201.3525,W,1.03,191.73,220114,,,A*78
$GPVTG,191.73,T,,M,1.03,N,1.90,K,A*3A
$GPGGA,164435.000,3012.5749,N,09201.3524,W,1,4,2.69,23.3,M,-25.6,M,,*5D
$GPGSA,A,3,22,29,24,18,,,,,,,,,2.84,2.69,0.92*0E
$GPGSV,3,1,10,15,68,066,,21,56,331,,29,49,194,28,18,47,288,12*7A
$GPGSV,3,2,10,26,30,044,,24,18,139,20,22,17,266,13,05,11,063,*7E
$GPGSV,3,3,10,06,06,322,,02,01,120,*7B
$GPRMC,164435.000,A,3012.5749,N,09201.3524,W,1.21,189.77,220114,,,A*7E
$GPVTG,189.77,T,,M,1.21,N,2.24,K,A*3B
$GPGGA,164436.000,3012.5744,N,09201.3524,W,1,4,2.69,23.3,M,-25.6,M,,*53
$GPGSA,A,3,22,29,24,18,,,,,,,,,2.84,2.69,0.92*0E
$GPRMC,164436.000,A,3012.5744,N,09201.3524,W,1.22,187.25,220114,,,A*7A
$GPVTG,187.25,T,,M,1.22,N,2.27,K,A*32
$GPGGA,164437.000,3012.5743,N,09201.3522,W,1,3,5.63,23.3,M,-25.6,M,,*59
$GPGSA,A,2,22,29,24,,,,,,,,,,5.72,5.63,1.00*0F
$GPRMC,164437.000,A,3012.5743,N,09201.3522,W,1.16,184.40,220114,,,A*7D
$GPVTG,184.40,T,,M,1.16,N,2.15,K,A*34
3,1.00*05
$GPRMC,164336.000,A,3012.5913,N,09201.3320,W,1.37,72.38,220114,,,A*40
$GPVTG,72.38,T,,M,1.37,N,2.54,K,A*05
$GPGGA,164337.000,3012.5914,N,09201.3317,W,1,3,3.33,24.3,M,-25.6,M,,*56
$GPGSA,A,2,29,24,18,,,,,,,,,,3.48,3.33,1.00*0A
$GPRMC,164337.000,A,3012.5914,N,09201.3317,W,1.35,71.21,220114,,,A*4B
$GPVTG,71.21,T,,M,1.35,N,2.49,K,A*00
$GPGGA,164338.000,3012.5910,N,09201.3318,W,1,3,3.32,24.3,M,-25.6,M,,*53
$GPGSA,A,2,29,24,18,,,,,,,,,,3.47,3.32,1.00*04
$GPRMC,164338.000,A,3012.5910,N,09201.3318,W,1.17,74.35,220114,,,A*4F
$GPVTG,74.35,T,,M,1.17,N,2.17,K,A*0B
$GPGGA,164339.000,3012.5908,N,09201.3317,W,1,3,3.32,24.3,M,-25.6,M,,*54
$GPGSA,A,2,29,24,18,,,,,,,,,,3.47,3.32,1.00*04
$GPRMC,164339.000,A,3012.5908,N,09201.3317,W,1.14,76.11,220114,,,A*4F
$GPVTG,76.11,T,,M,1.14,N,2.11,K,A*0A
$GPGGA,164340.000,3012.5902,N,09201.3314,W,1,3,3.32,24.3,M,-25.6,M,,*53
$GPGSA,A,2,29,24,18,,,,,,,,,,3.47,3.32,1.00*04
$GPGSV,3,1,10,15,68,067,,21,56,331,,29,50,194,28,18,47,288,16*77
$GPGSV,3,2,10,26,31,044,,24,18,139,18,22,17,266,,05,12,063,*75
$GPGSV,3,3,10,06,05,322,,02,01,120,*78
$GPRMC,164340.000,A,3012.5902,N,09201.3314,W,1.10,81.68,220114,,,A*4A
$GPVTG,81.68,T,,M,1.10,N,2.04,K,A*0C
$GPGGA,164341.000,3012.5897,N,09201.3312,W,1,3,3.32,24.3,M,-25.6,M,,*59
$GPGSA,A,2,29,24,18,,,,,,,,,,3.47,3.32,1.00*04
$GPRMC,164341.000,A,3012.5897,N,09201.3312,W,1.07,85.60,220114,,,A*4A
$GPVTG,85.60,T,,M,1.07,N,1.98,K,A*00
$GPGGA,164342.000,3012.5893,N,09201.3309,W,1,3,3.31,24.3,M,-25.6,M,,*57
$GPGSA,A,2,29,24,18,,,,,,,,,,3.46,3.31,1.00*06
$GPRMC,164342.000,A,3012.5893,N,09201.3309,W,1.04,85.76,220114,,,A*43
$GPVTG,85.76,T,,M,1.04,N,1.93,K,A*0F
$GPGGA,164343.000,3012.5886,N,09201.3311,W,1,3,3.31,24.3,M,-25.6,M,,*5B
$GPGSA,A,2,29,24,18,,,,,,,,,,3.46,3.31,1.00*06
$GPRMC,164343.000,A,3012.5886,N,09201.3311,W,0.99,89.17,220114,,,A*41
$GPVTG,89.17,T,,M,0.99,N,1.84,K,A*07
$GPGGA,164344.000,3012.5879,N,09201.3312,W,1,3,3.31,24.3,M,-25.6,M,,*5F
$GPGSA,A,2,29,24,18,,,,,,,,,,3.46,3.31,1.00*06
$GPRMC,164344.000,A,3012.5879,N,09201.3312,W,0.95,96.92,220114,,,A*4A
$GPVTG,96.92,T,,M,0.95,N,1.76,K,A*05
$GPGGA,164345.000,3012.5870,N,09201.3316,W,1,3,3.31,24.3,M,-25.6,M,,*53
$GPGSA,A,2,29,24,18,,,,,,,,,,3.46,3.31,1.00*06
$GPGSV,3,1,10,15,68,067,,21,56,331,,29,49,194,27,18,47,288,16*70
$GPGSV,3,2,10,26,31,044,,24,18,139,18,22,17,266,,05,12,063,*75
$GPGSV,3,3,10,06,05,322,,02,01,120,*78
$GPRMC,164345.000,A,3012.5870,N,09201.3316,W,0.90,103.37,220114,,,A*71
$GPVTG,103.37,T,,M,0.90,N,1.66,K,A*33
$GPGGA,164346.000,3012.5863,N,09201.3318,W,1,3,3.31,24.3,M,-25.6,M,,*5C
$GPGSA,A,2,29,24,18,,,,,,,,,,3.46,3.31,1.00*06
$GPRMC,164346.000,A,3012.5863,N,09201.3318,W,0.85,108.10,220114,,,A*74
$GPVTG,108.10,T,,M,0.85,N,1.58,K,A*34
$GPGGA,164347.000,3012.5856,N,09201.3321,W,1,3,3.31,24.3,M,-25.6,M,,*51
$GPGSA,A,2,29,24,18,,,,,,,,,,3.45,3.31,1.00*05
$GPRMC,164347.000,A,3012.5856,N,09201.3321,W,0.81,112.57,220114,,,A*75
$GPVTG,112.57,T,,M,0.81,N,1.50,K,A*30
$GPGGA,164348.000,3012.5851,N,09201.3328,W,1,3,3.31,24.3,M,-25.6,M,,*50
$GPGSA,A,2,29,24,18,,,,,,,,,,3.45,3.31,1.00*05
$GPRMC,164348.000,A,3012.5851,N,09201.3328,W,0.76,112.27,220114,,,A*7B
$GPVTG,112.27,T,,M,0.76,N,1.41,K,A*3F
$GPGGA,164349.000,3012.5846,N,09201.3335,W,1,3,3.31,24.3,M,-25.6,M,,*5B
$GPGSA,A,2,29,24,18,,,,,,,,,,3.46,3.31,1.00*06
$GPRMC,164349.000,A,3012.5846,N,09201.3335,W,0.59,120.94,220114,,,A*74
$GPVTG,120.94,T,,M,0.59,N,1.08,K,A*36
$GPGGA,164350.000,3012.5841,N,09201.3342,W,1,3,3.30,24.3,M,-25.6,M,,*55
$GPGSA,A,2,29,24,18,,,,,,,,,,3.45,3.30,1.00*04
$GPGSV,3,1,10,15,68,067,,21,56,331,,29,49,194,27,18,47,288,13*75
$GPGSV,3,2,10,26,31,044,,24,18,139,16,22,17,266,,05,12,063,*7B
$GPGSV,3,3,10,06,05,322,,02,01,120,*78
$GPRMC,164350.000,A,3012.5841,N,09201.3342,W,0.54,120.94,220114,,,A*76
$GPVTG,120.94,T,,M,0.54,N,0.99,K,A*32
$GPGGA,164351.000,3012.5835,N,09201.3347,W,1,3,3.30,24.3,M,-25.6,M,,*52
$GPGSA,A,2,29,24,18,,,,,,,,,,3.45,3.30,1.00*04
$GPRMC,164351.000,A,3012.5835,N,09201.3347,W,0.51,120.94,220114,,A*74
$GPVTG,120.94,T,,M,0.51,N,0.94,K,A*3A
$GPGGA,164352.000,3012.5831,N,09201.3353,W,1,3,3.30,24.3,M,-25.6,M,,*50
$GPGSA,A,2,29,24,18,,,,,,,,,,3.45,3.30,1.00*04
$GPRMC,164352.000,A,3012.5831,N,09201.3353,W,0.45,120.94,220114,,,A*73
$GPVTG,120.94,T,,M,0.45,N,0.83,K,A*39
$GPGGA,164353.000,3012.5829,N,09201.3353,W,1,3,3.30,24.3,M,-25.6,M,,*58
$GPGSA,A,2,29,24,18,,,,,,,,,,3.45,3.30,1.00*04
$GPRMC,164353.000,A,3012.5829,N,09201.3353,W,0.41,120.94,220114,,,A*7F
$GPVTG,120.94,T,,M,0.41,N,0.76,K,A*37
$GPGGA,164354.000,3012.5828,N,09201.3352,W,1,3,3.30,24.3,M,-25.6,M,,*5F
$GPGSA,A,2,29,24,18,,,,,,,,,,3.45,3.30,1.00*04
$GPRMC,164354.000,A,30125828,N,09201.3352,W,0.39,120.94,220114,,,A*77
$GPVTG,120.94,T,,M,0.39,N,0.73,K,A*3D
$GPGGA,164355.000,3012.5827,N,09201.3352,W,1,3,3.30,24.3,M,-25.6,M,,*51
$GPGSA,A,2,29,24,18,,,,,,,,,,3.44,3.30,1.00*05
$GPGSV,3,1,10,15,68,067,,21,56,331,,29,49,194,27,18,47,288,13*75
$GPGSV,3,2,10,26,31,044,,24,18,139,15,22,17,266,,05,12,063,*78
$GPGSV,3,3,10,06,05,322,,02,01,120,*78
$GPRMC,164355.000,A,3012.5827,N,09201.3352,W,0.46,120.94,220114,,,A*71
$GPVTG,120.94,T,,M,0.46,N,0.86,K,A*3F
$GPGGA,164356.00,3012.5826,N,09201.3352,W,1,3,3.29,24.3,M,-25.6,M,,*5B
$GPGSA,A,2,29,24,18,,,,,,,,,,3.44,3.29,1.00*0D
$GPRMC,164356.000,A,3012.5826,N,09201.3352,W,0.49,120.94,220114,,,A*7C
$GPVTG,120.94,T,,M,0.49,N,0.90,K,A*37
$GPGGA,164357.000,3012.5825,N,09201.3351,W,1,3,3.29,24.3,M,-25.6,M,,*5A
$GPGSA,A,2,29,24,18,,,,,,,,,,3.44,3.29,1.00*0D
$GPRMC,164357.000,A,3012.5825,N,09201.3351,W,0.53,120.94,220114,,,A*76
$GPVTG,120.94,T,,M,0.53,N,0.99,K,A*35
$GPGGA,164358.000,3012.5823,N,09201.3352,W,1,3,3.29,24.3,M,-25.6,M,,*50
$GPGSA,A,2,29,24,18,,,,,,,,,,3.44,3.29,1.00*0D
$GPRMC,164358.000,A,3012.5823,N,09201.3352,W,0.59,127.01,220114,,,A*7D
$GPVTG,127.01,T,,M,0.59,N,1.09,K,A*3C
$GPGGA,164359.000,3012.5835,N,09201.3366,W,1,4,2.72,24.2,M,-25.6,M,,*58
$GPGSA,A,3,22,29,24,18,,,,,,,,,2.87,2.72,0.92*07
$GPRMC,164359.000,A,3012.5835,N,09201.3366,W,0.52,127.01,220114,,,A*77
$GPVTG,127.01,T,,M,0.52,N,0.96,K,A*30
$GPGGA,164400.000,3012.5842,N,09201.3373,W,1,4,2.72,23.9,M,-25.6,M,,*5B
$GPGSA,A,3,22,29,24,18,,,,,,,,,2.87,2.72,0.92*07
$GPGSV,3,1,10,15,68,067,,21,56,331,,29,49,194,29,18,47,288,14*7C
$GPGSV,3,2,10,26,31,044,,24,18,139,13,22,17,266,16,05,12,063,*79
$GPGSV,3,3,10,06,06,322,,02,01,120,*7B
$GPRMC,164400.000,A,3012.5842,N,09201.3373,W,0.48,127.01,220114,,,A*73
$GPVTG,127.01,T,,M,0.48,N,0.89,K,A*35
$GPGGA,164401.000,3012.5849,N,09201.3381,W,1,4,2.72,23.6,M,-25.6,M,,*53
$GPGSA,A,3,22,29,24,18,,,,,,,,,2.87,2.72,0.92*07
$GPRMC,164401.000,A,3012.5849,N,09201.3381,W,0.54,259.39,220114,,,A*78
$GPVTG,259.39,T,,M,0.54,N,1.01,K,A*38
$GPGGA,164402.000,3012.5879,N,09201.3411,W,1,4,2.72,23.5,M,-25.6,M,,*5E
$GPGSA,A,3,22,29,24,18,,,,,,,,,2.87,2.72,0.92*07
$GPRMC,164402.000,A,3012.5879,N,09201.3411,W,1.04,261.87,220114,,,A*7C
$GPVTG,261.87,T,,M,1.04,N,1.92,K,A*38
$GPGGA,164403.000,3012.5905,N,09201.3435,W,1,4,2.71,23.5,M,-25.6,M,,*50
$GPGSA,A,3,22,29,24,18,,,,,,,,,2.87,2.71,0.92*04
$GPRMC,164403.000,A,3012.5905,N,09201.3435,W,1.43,265.28,220114,,,A*73
$GPVTG,265.28,T,,M,1.43,N,2.64,K,A*30
$GPGGA,164404.000,3012.5919,N,09201.3445,W,1,4,2.72,23.5,M,-25.6,M,,*5E
$GPGSA,A,3,22,29,24,18,,,,,,,,,2.87,2.72,0.92*07
$GPRMC,164404.000,A,3012.5919,N,09201.3445,W,1.49,269.08,220114,,,A*7A
$GPVTG,269.08,T,,M,1.49,N,2.76,K,A*37
$GPGGA,164405.000,3012.5929,N,09201.3455,W,1,4,2.72,23.5,M,-25.6,M,,*5D
$GPGSA,A,3,22,29,24,18,,,,,,,,,2.87,2.72,0.92*07
$GPGSV,3,1,10,15,68,066,,21,56,331,,29,49,194,30,18,47,288,15*74
$GPGSV,3,2,10,26,31,044,,24,18,139,12,22,17,266,15,05,12,063,*7B
$GPGSV,3,3,10,06,06,322,,02,01,120,*7B
$GPRMC,164405.000,A,3012.5929,N,09201.3455,W,1.53,272.17,220114,,,A*76
$GPVTG,272.17,T,,M,1.53,N,2.84,K,A*35
$GPGGA,164406.000,3012.5934,N,09201.3465,W,1,4,2.71,23.5,M,-25.6,M,,*52
$GPGSA,A,3,22,29,24,18,,,,,,,,,2.86,2.71,0.92*05
$GPRMC,164406.000,A,3012.5934,N,09201.3465,W,1.54,274.79,220114,,,A*73
$GPVTG,274.79,T,,M,1.54,N,2.86,K,A*3E
$GPGGA,164407.000,3012.5928,N,09201.3467,W,1,4,2.71,23.5,M,-25.6,M,,*5C
$GPGSA,A,3,22,29,24,18,,,,,,,,,2.86,2.71,0.92*05
$GPRMC,164407.000,A,3012.5928,N,09201.3467,W,1.37,292.45,220114,,,A*7F
$GPVTG,292.45,T,,M,1.37,N,2.55,K,A*32
$GPGGA,164408.000,3012.5924,N,09201.3470,W,1,4,2.71,23.5,M,-25.6,M,,*59
$GPGSA,A,3,22,29,24,18,,,,,,,,,2.86,2.71,0.92*05
$GPRMC,164408.000,A,3012.5924,N,09201.3470,W,1.33,292.90,220114,,,A*76
$GPVTG,292.90,T,,M,1.33,N,2.46,K,A*3C
$GPGGA,164409.000,3012.5919,N,09201.3468,W,1,4,2.71,23.5,M,-25.6,M,,*5F
$GPGSA,A,3,22,29,24,18,,,,,,,,,2.86,2.71,0.92*05
$GPRMC,164409.000,A,3012.5919,N,09201.3468,W,1.16,294.16,220114,,,A*7F
$GPVTG,294.16,T,,M,1.16,N,2.14,K,A*34
$GPGGA,164410.000,3012.5913,N,09201.3469,W,1,4,2.71,23.5,M,-25.6,M,,*5C
$GPGSA,A,3,22,29,24,18,,,,,,,,,2.86,2.71,0.92*05
$GPGSV,3,1,10,15,68,066,,21,56,331,,29,49,194,30,18,47,288,16*77
$GPGSV,3,2,10,26,31,044,,24,18,139,14,22,17,266,16,05,12,063,*7E
$GPGSV,3,3,10,06,06,322,,02,01,120,*7B
$GPRMC,164410.000,A,3012.5913,N,09201.3469,W,1.11,293.48,220114,,,A*77
$GPVTG,293.48,T,,M,1.11,N,2.06,K,A*3C
$GPGGA,164411.000,3012.5854,N,09201.3490,W,1,4,2.71,23.4,M,-25.6,M,,*58
$GPGSA,A,3,22,29,24,18,,,,,,,,,2.86,2.71,0.92*05
$GPRMC,164411.000,A,3012.5854,N,09201.3490,W,1.08,259.09,220114,,,A*79
$GPVTG,259.09,T,,M,1.08,N,2.01,K,A*30
$GPGGA,164412.000,3012.5820,N,09201.3501,W,1,4,2.71,23.4,M,-25.6,M,,*51
$GPGSA,A,3,22,29,24,18,,,,,,,,,2.86,2.71,0.92*05
$GPRMC,164412.000,A,3012.5820,N,09201.3501,W,1.08,242.92,220114,,,A*78
$GPVTG,242.92,T,,M,1.08,N,2.00,K,A*39
$GPGGA,164413.000,3012.5793,N,09201.3502,W,1,4,2.71,23.4,M,-25.6,M,,*54
$GPGSA,A,3,22,29,24,18,,,,,,,,,2.86,2.71,0.92*05
$GPRMC,164413.000,A,3012.5793,N,09201.3502,W,1.14,222.76,220114,,,A*7C
$GPVTG,222.76,T,,M,1.14,N,2.11,K,A*38
$GPGGA,164414.000,3012.5773,N,09201.3503,W,1,4,2.71,23.4,M,-25.6,M,,*5C
$GPGSA,A,3,22,29,24,18,,,,,,,,,2.86,2.71,0.92*05
$GPRMC,164414.000,A,3012.5773,N,09201.3503,W,1.33,214.12,220114,,,A*76
$GPVTG,214.12,T,,M,1.33,N,2.46,K,A*38
$GPGGA,164415.000,3012.5757,N,09201.3509,W,1,4,2.71,23.3,M,-25.6,M,,*56
$GPGSA,A,3,22,29,24,18,,,,,,,,,2.86,2.71,0.92*05
$GPGSV,3,1,10,15,68,066,,21,56,331,,29,49,194,30,18,47,288,15*74
$GPGSV,3,2,10,26,31,044,,24,18,139,17,22,17,266,17,05,12,063,*7C
$GPGSV,3,3,10,06,06,322,,02,01,120,*7B
$GPRMC,164415.000,A,3012.5757,N,09201.3509,W,1.33,212.37,220114,,,A*7A
$GPVTG,212.37,T,,M,1.33,N,2.46,K,A*39
$GPGGA,164416.000,3012.5762,N,09201.3505,W,1,4,2.70,23.3,M,-25.6,M,,*5E
$GPGSA,A,3,22,29,24,18,,,,,,,,,2.86,2.70,0.92*04
$GPRMC,164416.000,A,3012.5762,N,09201.3505,W,1.15,209.60,220114,,,A*7F
$GPVTG,209.60,T,,M,1.15,N,2.14,K,A*32
$GPGGA,164417.000,3012.5767,N,09201.3501,W,1,4,2.70,23.3,M,-25.6,M,,*5E
$GPGSA,A,3,22,29,24,18,,,,,,,,,2.85,2.70,0.92*07
$GPRMC,164417.000,A,3012.5767,N,09201.3501,W,0.98,207.14,220114,,,A*76
$GPVTG,207.14,T,,M,0.98,N,1.81,K,A*34
$GPGGA,164418.000,3012.5767,N,09201.3499,W,1,4,2.71,23.3,M,-25.6,M,,*50
$GPGSA,A,3,22,29,24,18,,,,,,,,,2.86,2.71,0.92*05
$GPRMC,164418.000,A,3012.5767,N,09201.3499,W,1.00,203.22,220114,,,A*78
$GPVTG,203.22,T,,M,1.00,N,1.85,K,A*31
$GPGGA,164419.000,3012.5769,N,09201.3496,W,1,4,2.70,23.3,M,-25.6,M,,*51
$GPGSA,A,3,22,29,24,18,,,,,,,,,2.85,2.70,0.92*07
$GPRMC,164419.000,A,3012.5769,N,09201.3496,W,0.99,198.62,220114,,,A*7C
$GPVTG,198.62,T,,M,0.99,N,1.83,K,A*33
$GPGGA,164420.000,3012.5764,N,09201.3500,W,1,4,2.70,23.3,M,-25.6,M,,*58
$GPGSA,A,3,22,29,24,18,,,,,,,,,2.85,2.70,0.92*07
$GPGSV,3,1,10,15,68,066,,21,56,331,,29,49,194,30,18,47,288,15*74
$GPGSV,3,2,10,26,30,044,,24,18,139,18,22,17,266,17,05,12,063,*72
$GPGSV,3,3,10,06,06,322,,02,01,120,*7B
$GPRMC,164420.000,A,3012.5764,N,09201.3500,W,1.03,197.15,220114,,,A*78
$GPVTG,197.15,T,,M,1.03,N,1.91,K,A*3D
$GPGGA,164421.000,3012.5758,N,09201.3506,W,1,4,2.70,23.3,M,-25.6,M,,*50
$GPGSA,A,3,22,29,24,18,,,,,,,,,2.85,2.70,0.92*07
$GPRMC,164421.000,A,3012.5758,N,09201.3506,W,1.09,197.51,220114,,,A*7A
$GPVTG,197.51,T,,M,1.09,N,2.02,K,A*3E
$GPGGA,164422.000,3012.5751,N,09201.3512,W,1,4,2.70,23.3,M,-25.6,M,,*5F
$GPGSA,A,3,22,29,24,18,,,,,,,,,2.85,2.70,0.92*07
$GPRMC,164422.000,A,3012.5751,N,09201.3512,W,1.15,197.47,220114,,,A*7F
$GPVTG,197.47,T,,M,1.15,N,2.14,K,A*33
$GPGGA,164423.000,3012.5746,N,09201.3518,W,1,4,2.70,23.3,M,-25.6,M,,*52
$GPGSA,A,3,22,29,24,18,,,,,,,,,2.85,2.70,0.92*07
$GPRMC,164423.000,A,3012.5746,N,09201.3518,W,1.19,198.63,220114,,,A*77
$GPVTG,198.63,T,,M,1.19,N,2.21,K,A*30
$GPGGA,16444.000,3012.5744,N,09201.3524,W,1,4,2.70,23.3,M,-25.6,M,,*58
$GPGSA,A,3,22,29,24,18,,,,,,,,,2.85,2.70,0.92*07
$GPRMC,164424.000,A,3012.5744,N,09201.3524,W,1.24,201.76,220114,,,A*74
$GPVTG,201.76,T,,M,1.24,N,2.29,K,A*31
$GPGGA,164425.000,3012.5745,N,09201.3525,W,1,4,2.70,23.3,M,-25.6,M,,*59
$GPGSA,A,3,22,29,24,18,,,,,,,,,2.85,2.70,0.92*07
$GPGSV,3,1,10,15,68,066,,21,56,331,,29,49,194,29,18,47,288,14*7D
$GPGSV,3,2,10,26,30,044,,24,18,139,18,22,17,266,17,05,12,063,*72
$GPGSV,3,3,10,06,06,322,,02,01,120,*7B
$GPRMC,164425.000,A,3012.5745,N,09201.3525,W,1.25,205.39,220114,,,A*7B
$GPVTG,205.39,T,,M,1.25,N,2.32,K,A*35
$GPGGA,164426.000,3012.5746,N,09201.3529,W,1,4,2.70,23.3,M,-25.6,M,,*55
$GPGSA,A,3,22,29,24,18,,,,,,,,,2.85,2.70,0.92*07
$GPRMC,164426.000,A,3012.5746,N,09201.3529,W,1.26,206.41,220114,,,A*78
$GPVTG,206.41,T,,M,1.26,N,2.33,K,A*3B
$GPGGA,164427.000,3012.5746,N,09201.3536,W,1,4,2.70,23.3,M,-25.6,M,,*5A
$GPGSA,A,3,22,29,24,18,,,,,,,,,2.85,2.70,0.92*07
$GPRMC,164427.000,A,3012.5746,N,09201.3536,W,1.25,209.68,220114,,,A*70
$GPVTG,209.68,T,,M,1.25,N,2.31,K,A*3E
$GPGGA,164428.000,3012.5750,N,09201.3536,W,1,4,2.69,23.3,M,-25.6,M,,*5A
$GPGSA,A,3,22,29,24,18,,,,,,,,,2.85,2.69,0.92*0F
$GPRMC,164428.000,A,3012.5750,N,09201.3536,W,1.23,209.01,220114,,,A*71
$GPVTG,209.01,T,,M,1.23,N,2.28,K,A*3F
$GPGGA,164429.000,3012.5747,N,09201.3534,W,1,4,2.69,23.3,M,-25.6,M,,*5F
$GPGSA,A,3,22,29,24,18,,,,,,,,,2.85,2.69,0.92*0F
$GPRMC,164429.000,A,3012.5747,N,09201.3534,W,1.24,202.57,220114,,,A*7B
$GPVTG,202.57,T,,M,1.24,N,2.29,K,A*31
$GPGGA,164430.000,3012.5745,N,09201.3532,W,1,4,2.69,23.3,M,-25.6,M,,*53
$GPGSA,A,3,22,29,24,18,,,,,,,,,2.85,2.69,0.92*0F
$GPGSV,3,1,10,15,68,066,,21,56,331,,29,49,194,29,18,47,288,12*7B
$GPGSV,3,2,10,26,30,044,,24,18,139,20,22,17,266,15,05,11,063,*78
$GPGSV,3,3,10,06,06,322,,02,01,120,*7B
$GPRMC,164430.000,A,3012.5745,N,09201.3532,W,1.24,198.74,220114,,,A*76
$GPVTG,198.74,T,,M,1.24,N,2.29,K,A*30
$GPGGA,164431.000,3012.5750,N,09201.3529,W,1,4,2.69,23.3,M,-25.6,M,,*5C
$GPGSA,A,3,22,29,24,18,,,,,,,,,2.84,2.69,0.92*0E
$GPRMC,164431.000,A,3012.5750,N,09201.3529,W,1.20,198.07,220114,,,A*79
$GPVTG,198.07,T,,M,1.20,N,2.21,K,A*38
$GPGGA,164432.000,3012.5753,N,09201.3527,W,1,4,2.69,23.3,M,-25.6,M,,*52
$GPGSA,A,3,22,29,24,18,,,,,,,,,2.84,2.69,0.92*0E
$GPRMC,164432.000,A,3012.5753,N,09201.3527,W,1.03,194.59,220114,,,A*71
$GPVTG,194.59,T,,M,1.03,N,1.91,K,A*36
$GPGGA,164433.000,3012.5757,N,09201.3525,W,1,4,2.69,23.3,M,-25.6,M,,*55
$GPGSA,A,3,22,29,24,18,,,,,,,,,2.84,2.69,0.92*0E
$GPRMC,164433.000¢bä¬012.5757,N,09201.3525,W,0.96,193.10,220114,,,A*71
$GPVTG,193.10,T,,M,0.96,N,1.79,K,A*37
$GPGGA,164434.000,3012.5753,N,09201.3525,W,1,4,2.69,23.3,M,-25.6,M,,*56
$GPGSA,A,3,22,29,24,18,,,,,,,,,2.84,2.69,0.92*0E
$GPRMC,164434.000,A,3012.5753,N,09201.3525,W,1.03,191.73,220114,,,A*78
$GPVTG,191.73,T,,M,1.03,N,1.90,K,A*3A
$GPGGA,164435.000,3012.5749,N,09201.3524,W,1,4,2.69,23.3,M,-25.6,M,,*5D
$GPGSA,A,3,22,29,24,18,,,,,,,,,2.84,2.69,0.92*0E
$GPGSV,3,1,10,15,68,066,,21,56,331,,29,49,194,28,18,47,288,12*7A
$GPGSV,3,2,10,26,30,044,,24,18,139,20,22,17,266,13,05,11,063,*7E
$GPGSV,3,3,10,06,06,322,,02,01,120,*7B
$GPRMC,164435.000,A,3012.5749,N,09201.3524,W,1.21,189.77,220114,,,A*7E
$GPVTG,189.77,T,,M,1.21,N,2.24,K,A*3B
$GPGGA,164436.000,3012.5744,N,09201.3524,W,1,4,2.69,23.3,M,-25.6,M,,*53
$GPGSA,A,3,22,29,24,18,,,,,,,,,2.84,2.69,0.92*0E
$GPRMC,164436.000,A,3012.5744,N,09201.3524,W,1.22,187.25,220114,,,A*7A
$GPVTG,187.25,T,,M,1.22,N,2.27,K,A*32
$GPGGA,164437.000,3012.5743,N,09201.3522,W,1,3,5.63,23.3,M,-25.6,M,,*59
$GPGSA,A,2,22,29,24,,,,,,,,,,5.72,5.63,1.00*0F
$GPRMC,164437.000,A,3012.5743,N,09201.3522,W,1.16,184.40,220114,,,A*7D
$GPVTG,184.40,T,,M,1.16,N,2.15,K,A*34
3,1.00*05
$GPRMC,164336.000,A,3012.5913,N,09201.3320,W,1.37,72.38,220114,,,A*40
$GPVTG,72.38,T,,M,1.37,N,2.54,K,A*05
$GPGGA,164337.000,3012.5914,N,09201.3317,W,1,3,3.33,24.3,M,-25.6,M,,*56
$GPGSA,A,2,29,24,18,,,,,,,,,,3.48,3.33,1.00*0A
$GPRMC,164337.000,A,3012.5914,N,09201.3317,W,1.35,71.21,220114,,,A*4B
$GPVTG,71.21,T,,M,1.35,N,2.49,K,A*00
$GPGGA,164338.000,3012.5910,N,09201.3318,W,1,3,3.32,24.3,M,-25.6,M,,*53
$GPGSA,A,2,29,24,18,,,,,,,,,,3.47,3.32,1.00*04
$GPRMC,164338.000,A,3012.5910,N,09201.3318,W,1.17,74.35,220114,,,A*4F
$GPVTG,74.35,T,,M,1.17,N,2.17,K,A*0B
$GPGGA,164339.000,3012.5908,N,09201.3317,W,1,3,3.32,24.3,M,-25.6,M,,*54
$GPGSA,A,2,29,24,18,,,,,,,,,,3.47,3.32,1.00*04
$GPRMC,164339.000,A,3012.5908,N,09201.3317,W,1.14,76.11,220114,,,A*4F
$GPVTG,76.11,T,,M,1.14,N,2.11,K,A*0A
$GPGGA,164340.000,3012.5902,N,09201.3314,W,1,3,3.32,24.3,M,-25.6,M,,*53
$GPGSA,A,2,29,24,18,,,,,,,,,,3.47,3.32,1.00*04
$GPGSV,3,1,10,15,68,067,,21,56,331,,29,50,194,28,18,47,288,16*77
$GPGSV,3,2,10,26,31,044,,24,18,139,18,22,17,266,,05,12,063,*75
$GPGSV,3,3,10,06,05,322,,02,01,120,*78
$GPRMC,164340.000,A,3012.5902,N,09201.3314,W,1.10,81.68,220114,,,A*4A
$GPVTG,81.68,T,,M,1.10,N,2.04,K,A*0C
$GPGGA,164341.000,3012.5897,N,09201.3312,W,1,3,3.32,24.3,M,-25.6,M,,*59
$GPGSA,A,2,29,24,18,,,,,,,,,,3.47,3.32,1.00*04
$GPRMC,164341.000,A,3012.5897,N,09201.3312,W,1.07,85.60,220114,,,A*4A
$GPVTG,85.60,T,,M,1.07,N,1.98,K,A*00
$GPGGA,164342.000,3012.5893,N,09201.3309,W,1,3,3.31,24.3,M,-25.6,M,,*57
$GPGSA,A,2,29,24,18,,,,,,,,,,3.46,3.31,1.00*06
$GPRMC,164342.000,A,3012.5893,N,09201.3309,W,1.04,85.76,220114,,,A*43
$GPVTG,85.76,T,,M,1.04,N,1.93,K,A*0F
$GPGGA,164343.000,3012.5886,N,09201.3311,W,1,3,3.31,24.3,M,-25.6,M,,*5B
$GPGSA,A,2,29,24,18,,,,,,,,,,3.46,3.31,1.00*06
$GPRMC,164343.000,A,3012.5886,N,09201.3311,W,0.99,89.17,220114,,,A*41
$GPVTG,89.17,T,,M,0.99,N,1.84,K,A*07
$GPGGA,164344.000,3012.5879,N,09201.3312,W,1,3,3.31,24.3,M,-25.6,M,,*5F
$GPGSA,A,2,29,24,18,,,,,,,,,,3.46,3.31,1.00*06
$GPRMC,164344.000,A,3012.5879,N,09201.3312,W,0.95,96.92,220114,,,A*4A
$GPVTG,96.92,T,,M,0.95,N,1.76,K,A*05
$GPGGA,164345.000,3012.5870,N,09201.3316,W,1,3,3.31,24.3,M,-25.6,M,,*53
$GPGSA,A,2,29,24,18,,,,,,,,,,3.46,3.31,1.00*06
$GPGSV,3,1,10,15,68,067,,21,56,331,,29,49,194,27,18,47,288,16*70
$GPGSV,3,2,10,26,31,044,,24,18,139,18,22,17,266,,05,12,063,*75
$GPGSV,3,3,10,06,05,322,,02,01,120,*78
$GPRMC,164345.000,A,3012.5870,N,09201.3316,W,0.90,103.37,220114,,,A*71
$GPVTG,103.37,T,,M,0.90,N,1.66,K,A*33
$GPGGA,164346.000,3012.5863,N,09201.3318,W,1,3,3.31,24.3,M,-25.6,M,,*5C
$GPGSA,A,2,29,24,18,,,,,,,,,,3.46,3.31,1.00*06
$GPRMC,164346.000,A,3012.5863,N,09201.3318,W,0.85,108.10,220114,,,A*74
$GPVTG,108.10,T,,M,0.85,N,1.58,K,A*34
$GPGGA,164347.000,3012.5856,N,09201.3321,W,1,3,3.31,24.3,M,-25.6,M,,*51
$GPGSA,A,2,29,24,18,,,,,,,,,,3.45,3.31,1.00*05
$GPRMC,164347.000,A,3012.5856,N,09201.3321,W,0.81,112.57,220114,,,A*75
$GPVTG,112.57,T,,M,0.81,N,1.50,K,A*30
$GPGGA,164348.000,3012.5851,N,09201.3328,W,1,3,3.31,24.3,M,-25.6,M,,*50
$GPGSA,A,2,29,24,18,,,,,,,,,,3.45,3.31,1.00*05
$GPRMC,164348.000,A,3012.5851,N,09201.3328,W,0.76,112.27,220114,,,A*7B
$GPVTG,112.27,T,,M,0.76,N,1.41,K,A*3F
$GPGGA,164349.000,3012.5846,N,09201.3335,W,1,3,3.31,24.3,M,-25.6,M,,*5B
$GPGSA,A,2,29,24,18,,,,,,,,,,3.46,3.31,1.00*06
$GPRMC,164349.000,A,3012.5846,N,09201.3335,W,0.59,120.94,220114,,,A*74
$GPVTG,120.94,T,,M,0.59,N,1.08,K,A*36
$GPGGA,164350.000,3012.5841,N,09201.3342,W,1,3,3.30,24.3,M,-25.6,M,,*55
$GPGSA,A,2,29,24,18,,,,,,,,,,3.45,3.30,1.00*04
$GPGSV,3,1,10,15,68,067,,21,56,331,,29,49,194,27,18,47,288,13*75
$GPGSV,3,2,10,26,31,044,,24,18,139,16,22,17,266,,05,12,063,*7B
$GPGSV,3,3,10,06,05,322,,02,01,120,*78
$GPRMC,164350.000,A,3012.5841,N,09201.3342,W,0.54,120.94,220114,,,A*76
$GPVTG,120.94,T,,M,0.54,N,0.99,K,A*32
$GPGGA,164351.000,3012.5835,N,09201.3347,W,1,3,3.30,24.3,M,-25.6,M,,*52
$GPGSA,A,2,29,24,18,,,,,,,,,,3.45,3.30,1.00*04
$GPRMC,164351.000,A,3012.5835,N,09201.3347,W,0.51,120.94,220114,,A*74
$GPVTG,120.94,T,,M,0.51,N,0.94,K,A*3A
$GPGGA,164352.000,3012.5831,N,09201.3353,W,1,3,3.30,24.3,M,-25.6,M,,*50
$GPGSA,A,2,29,24,18,,,,,,,,,,3.45,3.30,1.00*04
$GPRMC,164352.000,A,3012.5831,N,09201.3353,W,0.45,120.94,220114,,,A*73
$GPVTG,120.94,T,,M,0.45,N,0.83,K,A*39
$GPGGA,164353.000,3012.5829,N,09201.3353,W,1,3,3.30,24.3,M,-25.6,M,,*58
$GPGSA,A,2,29,24,18,,,,,,,,,,3.45,3.30,1.00*04
$GPRMC,164353.000,A,3012.5829,N,09201.3353,W,0.41,120.94,220114,,,A*7F
$GPVTG,120.94,T,,M,0.41,N,0.76,K,A*37
$GPGGA,164354.000,3012.5828,N,09201.3352,W,1,3,3.30,24.3,M,-25.6,M,,*5F
$GPGSA,A,2,29,24,18,,,,,,,,,,3.45,3.30,1.00*04
$GPRMC,164354.000,A,30125828,N,09201.3352,W,0.39,120.94,220114,,,A*77
$GPVTG,120.94,T,,M,0.39,N,0.73,K,A*3D
$GPGGA,164355.000,3012.5827,N,09201.3352,W,1,3,3.30,24.3,M,-25.6,M,,*51
$GPGSA,A,2,29,24,18,,,,,,,,,,3.44,3.30,1.00*05
$GPGSV,3,1,10,15,68,067,,21,56,331,,29,49,194,27,18,47,288,13*75
$GPGSV,3,2,10,26,31,044,,24,18,139,15,22,17,266,,05,12,063,*78
$GPGSV,3,3,10,06,05,322,,02,01,120,*78
$GPRMC,164355.000,A,3012.5827,N,09201.3352,W,0.46,120.94,220114,,,A*71
$GPVTG,120.94,T,,M,0.46,N,0.86,K,A*3F
$GPGGA,164356.00,3012.5826,N,09201.3352,W,1,3,3.29,24.3,M,-25.6,M,,*5B
$GPGSA,A,2,29,24,18,,,,,,,,,,3.44,3.29,1.00*0D
$GPRMC,164356.000,A,3012.5826,N,09201.3352,W,0.49,120.94,220114,,,A*7C
$GPVTG,120.94,T,,M,0.49,N,0.90,K,A*37
$GPGGA,164357.000,3012.5825,N,09201.3351,W,1,3,3.29,24.3,M,-25.6,M,,*5A
$GPGSA,A,2,29,24,18,,,,,,,,,,3.44,3.29,1.00*0D
$GPRMC,164357.000,A,3012.5825,N,09201.3351,W,0.53,120.94,220114,,,A*76
$GPVTG,120.94,T,,M,0.53,N,0.99,K,A*35
$GPGGA,164358.000,3012.5823,N,09201.3352,W,1,3,3.29,24.3,M,-25.6,M,,*50
$GPGSA,A,2,29,24,18,,,,,,,,,,3.44,3.29,1.00*0D
$GPRMC,164358.000,A,3012.5823,N,09201.3352,W,0.59,127.01,220114,,,A*7D
$GPVTG,127.01,T,,M,0.59,N,1.09,K,A*3C
$GPGGA,164359.000,3012.5835,N,09201.3366,W,1,4,2.72,24.2,M,-25.6,M,,*58
$GPGSA,A,3,22,29,24,18,,,,,,,,,2.87,2.72,0.92*07
$GPRMC,164359.000,A,3012.5835,N,09201.3366,W,0.52,127.01,220114,,,A*77
$GPVTG,127.01,T,,M,0.52,N,0.96,K,A*30
$GPGGA,164400.000,3012.5842,N,09201.3373,W,1,4,2.72,23.9,M,-25.6,M,,*5B
$GPGSA,A,3,22,29,24,18,,,,,,,,,2.87,2.72,0.92*07
$GPGSV,3,1,10,15,68,067,,21,56,331,,29,49,194,29,18,47,288,14*7C
$GPGSV,3,2,10,26,31,044,,24,18,139,13,22,17,266,16,05,12,063,*79
$GPGSV,3,3,10,06,06,322,,02,01,120,*7B
$GPRMC,164400.000,A,3012.5842,N,09201.3373,W,0.48,127.01,220114,,,A*73
$GPVTG,127.01,T,,M,0.48,N,0.89,K,A*35
$GPGGA,164401.000,3012.5849,N,09201.3381,W,1,4,2.72,23.6,M,-25.6,M,,*53
$GPGSA,A,3,22,29,24,18,,,,,,,,,2.87,2.72,0.92*07
$GPRMC,164401.000,A,3012.5849,N,09201.3381,W,0.54,259.39,220114,,,A*78
$GPVTG,259.39,T,,M,0.54,N,1.01,K,A*38
$GPGGA,164402.000,3012.5879,N,09201.3411,W,1,4,2.72,23.5,M,-25.6,M,,*5E
$GPGSA,A,3,22,29,24,18,,,,,,,,,2.87,2.72,0.92*07
$GPRMC,164402.000,A,3012.5879,N,09201.3411,W,1.04,261.87,220114,,,A*7C
$GPVTG,261.87,T,,M,1.04,N,1.92,K,A*38
$GPGGA,164403.000,3012.5905,N,09201.3435,W,1,4,2.71,23.5,M,-25.6,M,,*50
$GPGSA,A,3,22,29,24,18,,,,,,,,,2.87,2.71,0.92*04
$GPRMC,164403.000,A,3012.5905,N,09201.3435,W,1.43,265.28,220114,,,A*73
$GPVTG,265.28,T,,M,1.43,N,2.64,K,A*30
$GPGGA,164404.000,3012.5919,N,09201.3445,W,1,4,2.72,23.5,M,-25.6,M,,*5E
$GPGSA,A,3,22,29,24,18,,,,,,,,,2.87,2.72,0.92*07
$GPRMC,164404.000,A,3012.5919,N,09201.3445,W,1.49,269.08,220114,,,A*7A
$GPVTG,269.08,T,,M,1.49,N,2.76,K,A*37
$GPGGA,164405.000,3012.5929,N,09201.3455,W,1,4,2.72,23.5,M,-25.6,M,,*5D
$GPGSA,A,3,22,29,24,18,,,,,,,,,2.87,2.72,0.92*07
$GPGSV,3,1,10,15,68,066,,21,56,331,,29,49,194,30,18,47,288,15*74
$GPGSV,3,2,10,26,31,044,,24,18,139,12,22,17,266,15,05,12,063,*7B
$GPGSV,3,3,10,06,06,322,,02,01,120,*7B
$GPRMC,164405.000,A,3012.5929,N,09201.3455,W,1.53,272.17,220114,,,A*76
$GPVTG,272.17,T,,M,1.53,N,2.84,K,A*35
$GPGGA,164406.000,3012.5934,N,09201.3465,W,1,4,2.71,23.5,M,-25.6,M,,*52
$GPGSA,A,3,22,29,24,18,,,,,,,,,2.86,2.71,0.92*05
$GPRMC,164406.000,A,3012.5934,N,09201.3465,W,1.54,274.79,220114,,,A*73
$GPVTG,274.79,T,,M,1.54,N,2.86,K,A*3E
$GPGGA,164407.000,3012.5928,N,09201.3467,W,1,4,2.71,23.5,M,-25.6,M,,*5C
$GPGSA,A,3,22,29,24,18,,,,,,,,,2.86,2.71,0.92*05
$GPRMC,164407.000,A,3012.5928,N,09201.3467,W,1.37,292.45,220114,,,A*7F
$GPVTG,292.45,T,,M,1.37,N,2.55,K,A*32
$GPGGA,164408.000,3012.5924,N,09201.3470,W,1,4,2.71,23.5,M,-25.6,M,,*59
$GPGSA,A,3,22,29,24,18,,,,,,,,,2.86,2.71,0.92*05
$GPRMC,164408.000,A,3012.5924,N,09201.3470,W,1.33,292.90,220114,,,A*76
$GPVTG,292.90,T,,M,1.33,N,2.46,K,A*3C
$GPGGA,164409.000,3012.5919,N,09201.3468,W,1,4,2.71,23.5,M,-25.6,M,,*5F
$GPGSA,A,3,22,29,24,18,,,,,,,,,2.86,2.71,0.92*05
$GPRMC,164409.000,A,3012.5919,N,09201.3468,W,1.16,294.16,220114,,,A*7F
$GPVTG,294.16,T,,M,1.16,N,2.14,K,A*34
$GPGGA,164410.000,3012.5913,N,09201.3469,W,1,4,2.71,23.5,M,-25.6,M,,*5C
$GPGSA,A,3,22,29,24,18,,,,,,,,,2.86,2.71,0.92*05
$GPGSV,3,1,10,15,68,066,,21,56,331,,29,49,194,30,18,47,288,16*77
$GPGSV,3,2,10,26,31,044,,24,18,139,14,22,17,266,16,05,12,063,*7E
$GPGSV,3,3,10,06,06,322,,02,01,120,*7B
$GPRMC,164410.000,A,3012.5913,N,09201.3469,W,1.11,293.48,220114,,,A*77
$GPVTG,293.48,T,,M,1.11,N,2.06,K,A*3C
$GPGGA,164411.000,3012.5854,N,09201.3490,W,1,4,2.71,23.4,M,-25.6,M,,*58
$GPGSA,A,3,22,29,24,18,,,,,,,,,2.86,2.71,0.92*05
$GPRMC,164411.000,A,3012.5854,N,09201.3490,W,1.08,259.09,220114,,,A*79
$GPVTG,259.09,T,,M,1.08,N,2.01,K,A*30
$GPGGA,164412.000,3012.5820,N,09201.3501,W,1,4,2.71,23.4,M,-25.6,M,,*51
$GPGSA,A,3,22,29,24,18,,,,,,,,,2.86,2.71,0.92*05
$GPRMC,164412.000,A,3012.5820,N,09201.3501,W,1.08,242.92,220114,,,A*78
$GPVTG,242.92,T,,M,1.08,N,2.00,K,A*39
$GPGGA,164413.000,3012.5793,N,09201.3502,W,1,4,2.71,23.4,M,-25.6,M,,*54
$GPGSA,A,3,22,29,24,18,,,,,,,,,2.86,2.71,0.92*05
$GPRMC,164413.000,A,3012.5793,N,09201.3502,W,1.14,222.76,220114,,,A*7C
$GPVTG,222.76,T,,M,1.14,N,2.11,K,A*38
$GPGGA,164414.000,3012.5773,N,09201.3503,W,1,4,2.71,23.4,M,-25.6,M,,*5C
$GPGSA,A,3,22,29,24,18,,,,,,,,,2.86,2.71,0.92*05
$GPRMC,164414.000,A,3012.5773,N,09201.3503,W,1.33,214.12,220114,,,A*76
$GPVTG,214.12,T,,M,1.33,N,2.46,K,A*38
$GPGGA,164415.000,3012.5757,N,09201.3509,W,1,4,2.71,23.3,M,-25.6,M,,*56
$GPGSA,A,3,22,29,24,18,,,,,,,,,2.86,2.71,0.92*05
$GPGSV,3,1,10,15,68,066,,21,56,331,,29,49,194,30,18,47,288,15*74
$GPGSV,3,2,10,26,31,044,,24,18,139,17,22,17,266,17,05,12,063,*7C
$GPGSV,3,3,10,06,06,322,,02,01,120,*7B
$GPRMC,164415.000,A,3012.5757,N,09201.3509,W,1.33,212.37,220114,,,A*7A
$GPVTG,212.37,T,,M,1.33,N,2.46,K,A*39
$GPGGA,164416.000,3012.5762,N,09201.3505,W,1,4,2.70,23.3,M,-25.6,M,,*5E
$GPGSA,A,3,22,29,24,18,,,,,,,,,2.86,2.70,0.92*04
$GPRMC,164416.000,A,3012.5762,N,09201.3505,W,1.15,209.60,220114,,,A*7F
$GPVTG,209.60,T,,M,1.15,N,2.14,K,A*32
$GPGGA,164417.000,3012.5767,N,09201.3501,W,1,4,2.70,23.3,M,-25.6,M,,*5E
$GPGSA,A,3,22,29,24,18,,,,,,,,,2.85,2.70,0.92*07
$GPRMC,164417.000,A,3012.5767,N,09201.3501,W,0.98,207.14,220114,,,A*76
$GPVTG,207.14,T,,M,0.98,N,1.81,K,A*34
$GPGGA,164418.000,3012.5767,N,09201.3499,W,1,4,2.71,23.3,M,-25.6,M,,*50
$GPGSA,A,3,22,29,24,18,,,,,,,,,2.86,2.71,0.92*05
$GPRMC,164418.000,A,3012.5767,N,09201.3499,W,1.00,203.22,220114,,,A*78
$GPVTG,203.22,T,,M,1.00,N,1.85,K,A*31
$GPGGA,164419.000,3012.5769,N,09201.3496,W,1,4,2.70,23.3,M,-25.6,M,,*51
$GPGSA,A,3,22,29,24,18,,,,,,,,,2.85,2.70,0.92*07
$GPRMC,164419.000,A,3012.5769,N,09201.3496,W,0.99,198.62,220114,,,A*7C
$GPVTG,198.62,T,,M,0.99,N,1.83,K,A*33
$GPGGA,164420.000,3012.5764,N,09201.3500,W,1,4,2.70,23.3,M,-25.6,M,,*58
$GPGSA,A,3,22,29,24,18,,,,,,,,,2.85,2.70,0.92*07
$GPGSV,3,1,10,15,68,066,,21,56,331,,29,49,194,30,18,47,288,15*74
$GPGSV,3,2,10,26,30,044,,24,18,139,18,22,17,266,17,05,12,063,*72
$GPGSV,3,3,10,06,06,322,,02,01,120,*7B
$GPRMC,164420.000,A,3012.5764,N,09201.3500,W,1.03,197.15,220114,,,A*78
$GPVTG,197.15,T,,M,1.03,N,1.91,K,A*3D
$GPGGA,164421.000,3012.5758,N,09201.3506,W,1,4,2.70,23.3,M,-25.6,M,,*50
$GPGSA,A,3,22,29,24,18,,,,,,,,,2.85,2.70,0.92*07
$GPRMC,164421.000,A,3012.5758,N,09201.3506,W,1.09,197.51,220114,,,A*7A
$GPVTG,197.51,T,,M,1.09,N,2.02,K,A*3E
$GPGGA,164422.000,3012.5751,N,09201.3512,W,1,4,2.70,23.3,M,-25.6,M,,*5F
$GPGSA,A,3,22,29,24,18,,,,,,,,,2.85,2.70,0.92*07
$GPRMC,164422.000,A,3012.5751,N,09201.3512,W,1.15,197.47,220114,,,A*7F
$GPVTG,197.47,T,,M,1.15,N,2.14,K,A*33
$GPGGA,164423.000,3012.5746,N,09201.3518,W,1,4,2.70,23.3,M,-25.6,M,,*52
$GPGSA,A,3,22,29,24,18,,,,,,,,,2.85,2.70,0.92*07
$GPRMC,164423.000,A,3012.5746,N,09201.3518,W,1.19,198.63,220114,,,A*77
$GPVTG,198.63,T,,M,1.19,N,2.21,K,A*30
$GPGGA,16444.000,3012.5744,N,09201.3524,W,1,4,2.70,23.3,M,-25.6,M,,*58
$GPGSA,A,3,22,29,24,18,,,,,,,,,2.85,2.70,0.92*07
$GPRMC,164424.000,A,3012.5744,N,09201.3524,W,1.24,201.76,220114,,,A*74
$GPVTG,201.76,T,,M,1.24,N,2.29,K,A*31
$GPGGA,164425.000,3012.5745,N,09201.3525,W,1,4,2.70,23.3,M,-25.6,M,,*59
$GPGSA,A,3,22,29,24,18,,,,,,,,,2.85,2.70,0.92*07
$GPGSV,3,1,10,15,68,066,,21,56,331,,29,49,194,29,18,47,288,14*7D
$GPGSV,3,2,10,26,30,044,,24,18,139,18,22,17,266,17,05,12,063,*72
$GPGSV,3,3,10,06,06,322,,02,01,120,*7B
$GPRMC,164425.000,A,3012.5745,N,09201.3525,W,1.25,205.39,220114,,,A*7B
$GPVTG,205.39,T,,M,1.25,N,2.32,K,A*35
$GPGGA,164426.000,3012.5746,N,09201.3529,W,1,4,2.70,23.3,M,-25.6,M,,*55
$GPGSA,A,3,22,29,24,18,,,,,,,,,2.85,2.70,0.92*07
$GPRMC,164426.000,A,3012.5746,N,09201.3529,W,1.26,206.41,220114,,,A*78
$GPVTG,206.41,T,,M,1.26,N,2.33,K,A*3B
$GPGGA,164427.000,3012.5746,N,09201.3536,W,1,4,2.70,23.3,M,-25.6,M,,*5A
$GPGSA,A,3,22,29,24,18,,,,,,,,,2.85,2.70,0.92*07
$GPRMC,164427.000,A,3012.5746,N,09201.3536,W,1.25,209.68,220114,,,A*70
$GPVTG,209.68,T,,M,1.25,N,2.31,K,A*3E
$GPGGA,164428.000,3012.5750,N,09201.3536,W,1,4,2.69,23.3,M,-25.6,M,,*5A
$GPGSA,A,3,22,29,24,18,,,,,,,,,2.85,2.69,0.92*0F
$GPRMC,164428.000,A,3012.5750,N,09201.3536,W,1.23,209.01,220114,,,A*71
$GPVTG,209.01,T,,M,1.23,N,2.28,K,A*3F
$GPGGA,164429.000,3012.5747,N,09201.3534,W,1,4,2.69,23.3,M,-25.6,M,,*5F
$GPGSA,A,3,22,29,24,18,,,,,,,,,2.85,2.69,0.92*0F
$GPRMC,164429.000,A,3012.5747,N,09201.3534,W,1.24,202.57,220114,,,A*7B
$GPVTG,202.57,T,,M,1.24,N,2.29,K,A*31
$GPGGA,164430.000,3012.5745,N,09201.3532,W,1,4,2.69,23.3,M,-25.6,M,,*53
$GPGSA,A,3,22,29,24,18,,,,,,,,,2.85,2.69,0.92*0F
$GPGSV,3,1,10,15,68,066,,21,56,331,,29,49,194,29,18,47,288,12*7B
$GPGSV,3,2,10,26,30,044,,24,18,139,20,22,17,266,15,05,11,063,*78
$GPGSV,3,3,10,06,06,322,,02,01,120,*7B
$GPRMC,164430.000,A,3012.5745,N,09201.3532,W,1.24,198.74,220114,,,A*76
$GPVTG,198.74,T,,M,1.24,N,2.29,K,A*30
$GPGGA,164431.000,3012.5750,N,09201.3529,W,1,4,2.69,23.3,M,-25.6,M,,*5C
$GPGSA,A,3,22,29,24,18,,,,,,,,,2.84,2.69,0.92*0E
$GPRMC,164431.000,A,3012.5750,N,09201.3529,W,1.20,198.07,220114,,,A*79
$GPVTG,198.07,T,,M,1.20,N,2.21,K,A*38
$GPGGA,164432.000,3012.5753,N,09201.3527,W,1,4,2.69,23.3,M,-25.6,M,,*52
$GPGSA,A,3,22,29,24,18,,,,,,,,,2.84,2.69,0.92*0E
$GPRMC,164432.000,A,3012.5753,N,09201.3527,W,1.03,194.59,220114,,,A*71
$GPVTG,194.59,T,,M,1.03,N,1.91,K,A*36
$GPGGA,164433.000,3012.5757,N,09201.3525,W,1,4,2.69,23.3,M,-25.6,M,,*55
$GPGSA,A,3,22,29,24,18,,,,,,,,,2.84,2.69,0.92*0E
$GPRMC,164433.000¢bä¬béââ5757,N,09201.3525,W,0.96,193.10,220114,,,A*71
$GPVTG,193.10,T,,M,0.96,N,1.79,K,A*37
$GPGGA,164434.000,3012.5753,N,09201.3525,W,1,4,2.69,23.3,M,-25.6,M,,*56
$GPGSA,A,3,22,29,24,18,,,,,,,,,2.84,2.69,0.92*0E
$GPRMC,164434.000,A,3012.5753,N,09201.3525,W,1.03,191.73,220114,,,A*78
$GPVTG,191.73,T,,M,1.03,N,1.90,K,A*3A
$GPGGA,164435.000,3012.5749,N,09201.3524,W,1,4,2.69,23.3,M,-25.6,M,,*5D
$GPGSA,A,3,22,29,24,18,,,,,,,,,2.84,2.69,0.92*0E
$GPGSV,3,1,10,15,68,066,,21,56,331,,29,49,194,28,18,47,288,12*7A
$GPGSV,3,2,10,26,30,044,,24,18,139,20,22,17,266,13,05,11,063,*7E
$GPGSV,3,3,10,06,06,322,,02,01,120,*7B
$GPRMC,164435.000,A,3012.5749,N,09201.3524,W,1.21,189.77,220114,,,A*7E
$GPVTG,189.77,T,,M,1.21,N,2.24,K,A*3B
$GPGGA,164436.000,3012.5744,N,09201.3524,W,1,4,2.69,23.3,M,-25.6,M,,*53
$GPGSA,A,3,22,29,24,18,,,,,,,,,2.84,2.69,0.92*0E
$GPRMC,164436.000,A,3012.5744,N,09201.3524,W,1.22,187.25,220114,,,A*7A
$GPVTG,187.25,T,,M,1.22,N,2.27,K,A*32
$GPGGA,164437.000,3012.5743,N,09201.3522,W,1,3,5.63,23.3,M,-25.6,M,,*59
$GPGSA,A,2,22,29,24,,,,,,,,,,5.72,5.63,1.00*0F
$GPRMC,164437.000,A,3012.5743,N,09201.3522,W,1.16,184.40,220114,,,A*7D
$GPVTG,184.40,T,,M,1.16,N,2.15,K,A*34
3,1.00*05
$GPRMC,164336.000,A,3012.5913,N,09201.3320,W,1.37,72.38,220114,,,A*40
$GPVTG,72.38,T,,M,1.37,N,2.54,K,A*05
$GPGGA,164337.000,3012.5914,N,09201.3317,W,1,3,3.33,24.3,M,-25.6,M,,*56
$GPGSA,A,2,29,24,18,,,,,,,,,,3.48,3.33,1.00*0A
$GPRMC,164337.000,A,3012.5914,N,09201.3317,W,1.35,71.21,220114,,,A*4B
$GPVTG,71.21,T,,M,1.35,N,2.49,K,A*00
$GPGGA,164338.000,3012.5910,N,09201.3318,W,1,3,3.32,24.3,M,-25.6,M,,*53
$GPGSA,A,2,29,24,18,,,,,,,,,,3.47,3.32,1.00*04
$GPRMC,164338.000,A,3012.5910,N,09201.3318,W,1.17,74.35,220114,,,A*4F
$GPVTG,74.35,T,,M,1.17,N,2.17,K,A*0B
$GPGGA,164339.000,3012.5908,N,09201.3317,W,1,3,3.32,24.3,M,-25.6,M,,*54
$GPGSA,A,2,29,24,18,,,,,,,,,,3.47,3.32,1.00*04
$GPRMC,164339.000,A,3012.5908,N,09201.3317,W,1.14,76.11,220114,,,A*4F
$GPVTG,76.11,T,,M,1.14,N,2.11,K,A*0A
$GPGGA,164340.000,3012.5902,N,09201.3314,W,1,3,3.32,24.3,M,-25.6,M,,*53
$GPGSA,A,2,29,24,18,,,,,,,,,,3.47,3.32,1.00*04
$GPGSV,3,1,10,15,68,067,,21,56,331,,29,50,194,28,18,47,288,16*77
$GPGSV,3,2,10,26,31,044,,24,18,139,18,22,17,266,,05,12,063,*75
$GPGSV,3,3,10,06,05,322,,02,01,120,*78
$GPRMC,164340.000,A,3012.5902,N,09201.3314,W,1.10,81.68,220114,,,A*4A
$GPVTG,81.68,T,,M,1.10,N,2.04,K,A*0C
$GPGGA,164341.000,3012.5897,N,09201.3312,W,1,3,3.32,24.3,M,-25.6,M,,*59
$GPGSA,A,2,29,24,18,,,,,,,,,,3.47,3.32,1.00*04
$GPRMC,164341.000,A,3012.5897,N,09201.3312,W,1.07,85.60,220114,,,A*4A
$GPVTG,85.60,T,,M,1.07,N,1.98,K,A*00
$GPGGA,164342.000,3012.5893,N,09201.3309,W,1,3,3.31,24.3,M,-25.6,M,,*57
$GPGSA,A,2,29,24,18,,,,,,,,,,3.46,3.31,1.00*06
$GPRMC,164342.000,A,3012.5893,N,09201.3309,W,1.04,85.76,220114,,,A*43
$GPVTG,85.76,T,,M,1.04,N,1.93,K,A*0F
$GPGGA,164343.000,3012.5886,N,09201.3311,W,1,3,3.31,24.3,M,-25.6,M,,*5B
$GPGSA,A,2,29,24,18,,,,,,,,,,3.46,3.31,1.00*06
$GPRMC,164343.000,A,3012.5886,N,09201.3311,W,0.99,89.17,220114,,,A*41
$GPVTG,89.17,T,,M,0.99,N,1.84,K,A*07
$GPGGA,164344.000,3012.5879,N,09201.3312,W,1,3,3.31,24.3,M,-25.6,M,,*5F
$GPGSA,A,2,29,24,18,,,,,,,,,,3.46,3.31,1.00*06
$GPRMC,164344.000,A,3012.5879,N,09201.3312,W,0.95,96.92,220114,,,A*4A
$GPVTG,96.92,T,,M,0.95,N,1.76,K,A*05
$GPGGA,164345.000,3012.5870,N,09201.3316,W,1,3,3.31,24.3,M,-25.6,M,,*53
$GPGSA,A,2,29,24,18,,,,,,,,,,3.46,3.31,1.00*06
$GPGSV,3,1,10,15,68,067,,21,56,331,,29,49,194,27,18,47,288,16*70
$GPGSV,3,2,10,26,31,044,,24,18,139,18,22,17,266,,05,12,063,*75
$GPGSV,3,3,10,06,05,322,,02,01,120,*78
$GPRMC,164345.000,A,3012.5870,N,09201.3316,W,0.90,103.37,220114,,,A*71
$GPVTG,103.37,T,,M,0.90,N,1.66,K,A*33
$GPGGA,164346.000,3012.5863,N,09201.3318,W,1,3,3.31,24.3,M,-25.6,M,,*5C
$GPGSA,A,2,29,24,18,,,,,,,,,,3.46,3.31,1.00*06
$GPRMC,164346.000,A,3012.5863,N,09201.3318,W,0.85,108.10,220114,,,A*74
$GPVTG,108.10,T,,M,0.85,N,1.58,K,A*34
$GPGGA,164347.000,3012.5856,N,09201.3321,W,1,3,3.31,24.3,M,-25.6,M,,*51
$GPGSA,A,2,29,24,18,,,,,,,,,,3.45,3.31,1.00*05
$GPRMC,164347.000,A,3012.5856,N,09201.3321,W,0.81,112.57,220114,,,A*75
$GPVTG,112.57,T,,M,0.81,N,1.50,K,A*30
$GPGGA,164348.000,3012.5851,N,09201.3328,W,1,3,3.31,24.3,M,-25.6,M,,*50
$GPGSA,A,2,29,24,18,,,,,,,,,,3.45,3.31,1.00*05
$GPRMC,164348.000,A,3012.5851,N,09201.3328,W,0.76,112.27,220114,,,A*7B
$GPVTG,112.27,T,,M,0.76,N,1.41,K,A*3F
$GPGGA,164349.000,3012.5846,N,09201.3335,W,1,3,3.31,24.3,M,-25.6,M,,*5B
$GPGSA,A,2,29,24,18,,,,,,,,,,3.46,3.31,1.00*06
$GPRMC,164349.000,A,3012.5846,N,09201.3335,W,0.59,120.94,220114,,,A*74
$GPVTG,120.94,T,,M,0.59,N,1.08,K,A*36
$GPGGA,164350.000,3012.5841,N,09201.3342,W,1,3,3.30,24.3,M,-25.6,M,,*55
$GPGSA,A,2,29,24,18,,,,,,,,,,3.45,3.30,1.00*04
$GPGSV,3,1,10,15,68,067,,21,56,331,,29,49,194,27,18,47,288,13*75
$GPGSV,3,2,10,26,31,044,,24,18,139,16,22,17,266,,05,12,063,*7B
$GPGSV,3,3,10,06,05,322,,02,01,120,*78
$GPRMC,164350.000,A,3012.5841,N,09201.3342,W,0.54,120.94,220114,,,A*76
$GPVTG,120.94,T,,M,0.54,N,0.99,K,A*32
$GPGGA,164351.000,3012.5835,N,09201.3347,W,1,3,3.30,24.3,M,-25.6,M,,*52
$GPGSA,A,2,29,24,18,,,,,,,,,,3.45,3.30,1.00*04
$GPRMC,164351.000,A,3012.5835,N,09201.3347,W,0.51,120.94,220114,,A*74
$GPVTG,120.94,T,,M,0.51,N,0.94,K,A*3A
$GPGGA,164352.000,3012.5831,N,09201.3353,W,1,3,3.30,24.3,M,-25.6,M,,*50
$GPGSA,A,2,29,24,18,,,,,,,,,,3.45,3.30,1.00*04
$GPRMC,164352.000,A,3012.5831,N,09201.3353,W,0.45,120.94,220114,,,A*73
$GPVTG,120.94,T,,M,0.45,N,0.83,K,A*39
$GPGGA,164353.000,3012.5829,N,09201.3353,W,1,3,3.30,24.3,M,-25.6,M,,*58
$GPGSA,A,2,29,24,18,,,,,,,,,,3.45,3.30,1.00*04
$GPRMC,164353.000,A,3012.5829,N,09201.3353,W,0.41,120.94,220114,,,A*7F
$GPVTG,120.94,T,,M,0.41,N,0.76,K,A*37
$GPGGA,164354.000,3012.5828,N,09201.3352,W,1,3,3.30,24.3,M,-25.6,M,,*5F
$GPGSA,A,2,29,24,18,,,,,,,,,,3.45,3.30,1.00*04
$GPRMC,164354.000,A,30125828,N,09201.3352,W,0.39,120.94,220114,,,A*77
$GPVTG,120.94,T,,M,0.39,N,0.73,K,A*3D
$GPGGA,164355.000,3012.5827,N,09201.3352,W,1,3,3.30,24.3,M,-25.6,M,,*51
$GPGSA,A,2,29,24,18,,,,,,,,,,3.44,3.30,1.00*05
$GPGSV,3,1,10,15,68,067,,21,56,331,,29,49,194,27,18,47,288,13*75
$GPGSV,3,2,10,26,31,044,,24,18,139,15,22,17,266,,05,12,063,*78
$GPGSV,3,3,10,06,05,322,,02,01,120,*78
$GPRMC,164355.000,A,3012.5827,N,09201.3352,W,0.46,120.94,220114,,,A*71
$GPVTG,120.94,T,,M,0.46,N,0.86,K,A*3F
$GPGGA,164356.00,3012.5826,N,09201.3352,W,1,3,3.29,24.3,M,-25.6,M,,*5B
$GPGSA,A,2,29,24,18,,,,,,,,,,3.44,3.29,1.00*0D
$GPRMC,164356.000,A,3012.5826,N,09201.3352,W,0.49,120.94,220114,,,A*7C
$GPVTG,120.94,T,,M,0.49,N,0.90,K,A*37
$GPGGA,164357.000,3012.5825,N,09201.3351,W,1,3,3.29,24.3,M,-25.6,M,,*5A
$GPGSA,A,2,29,24,18,,,,,,,,,,3.44,3.29,1.00*0D
$GPRMC,164357.000,A,3012.5825,N,09201.3351,W,0.53,120.94,220114,,,A*76
$GPVTG,120.94,T,,M,0.53,N,0.99,K,A*35
$GPGGA,164358.000,3012.5823,N,09201.3352,W,1,3,3.29,24.3,M,-25.6,M,,*50
$GPGSA,A,2,29,24,18,,,,,,,,,,3.44,3.29,1.00*0D
$GPRMC,164358.000,A,3012.5823,N,09201.3352,W,0.59,127.01,220114,,,A*7D
$GPVTG,127.01,T,,M,0.59,N,1.09,K,A*3C
$GPGGA,164359.000,3012.5835,N,09201.3366,W,1,4,2.72,24.2,M,-25.6,M,,*58
$GPGSA,A,3,22,29,24,18,,,,,,,,,2.87,2.72,0.92*07
$GPRMC,164359.000,A,3012.5835,N,09201.3366,W,0.52,127.01,220114,,,A*77
$GPVTG,127.01,T,,M,0.52,N,0.96,K,A*30
$GPGGA,164400.000,3012.5842,N,09201.3373,W,1,4,2.72,23.9,M,-25.6,M,,*5B
$GPGSA,A,3,22,29,24,18,,,,,,,,,2.87,2.72,0.92*07
$GPGSV,3,1,10,15,68,067,,21,56,331,,29,49,194,29,18,47,288,14*7C
$GPGSV,3,2,10,26,31,044,,24,18,139,13,22,17,266,16,05,12,063,*79
$GPGSV,3,3,10,06,06,322,,02,01,120,*7B
$GPRMC,164400.000,A,3012.5842,N,09201.3373,W,0.48,127.01,220114,,,A*73
$GPVTG,127.01,T,,M,0.48,N,0.89,K,A*35
$GPGGA,164401.000,3012.5849,N,09201.3381,W,1,4,2.72,23.6,M,-25.6,M,,*53
$GPGSA,A,3,22,29,24,18,,,,,,,,,2.87,2.72,0.92*07
$GPRMC,164401.000,A,3012.5849,N,09201.3381,W,0.54,259.39,220114,,,A*78
$GPVTG,259.39,T,,M,0.54,N,1.01,K,A*38
$GPGGA,164402.000,3012.5879,N,09201.3411,W,1,4,2.72,23.5,M,-25.6,M,,*5E
$GPGSA,A,3,22,29,24,18,,,,,,,,,2.87,2.72,0.92*07
$GPRMC,164402.000,A,3012.5879,N,09201.3411,W,1.04,261.87,220114,,,A*7C
$GPVTG,261.87,T,,M,1.04,N,1.92,K,A*38
$GPGGA,164403.000,3012.5905,N,09201.3435,W,1,4,2.71,23.5,M,-25.6,M,,*50
$GPGSA,A,3,22,29,24,18,,,,,,,,,2.87,2.71,0.92*04
$GPRMC,164403.000,A,3012.5905,N,09201.3435,W,1.43,265.28,220114,,,A*73
$GPVTG,265.28,T,,M,1.43,N,2.64,K,A*30
$GPGGA,164404.000,3012.5919,N,09201.3445,W,1,4,2.72,23.5,M,-25.6,M,,*5E
$GPGSA,A,3,22,29,24,18,,,,,,,,,2.87,2.72,0.92*07
$GPRMC,164404.000,A,3012.5919,N,09201.3445,W,1.49,269.08,220114,,,A*7A
$GPVTG,269.08,T,,M,1.49,N,2.76,K,A*37
$GPGGA,164405.000,3012.5929,N,09201.3455,W,1,4,2.72,23.5,M,-25.6,M,,*5D
$GPGSA,A,3,22,29,24,18,,,,,,,,,2.87,2.72,0.92*07
$GPGSV,3,1,10,15,68,066,,21,56,331,,29,49,194,30,18,47,288,15*74
$GPGSV,3,2,10,26,31,044,,24,18,139,12,22,17,266,15,05,12,063,*7B
$GPGSV,3,3,10,06,06,322,,02,01,120,*7B
$GPRMC,164405.000,A,3012.5929,N,09201.3455,W,1.53,272.17,220114,,,A*76
$GPVTG,272.17,T,,M,1.53,N,2.84,K,A*35
$GPGGA,164406.000,3012.5934,N,09201.3465,W,1,4,2.71,23.5,M,-25.6,M,,*52
$GPGSA,A,3,22,29,24,18,,,,,,,,,2.86,2.71,0.92*05
$GPRMC,164406.000,A,3012.5934,N,09201.3465,W,1.54,274.79,220114,,,A*73
$GPVTG,274.79,T,,M,1.54,N,2.86,K,A*3E
$GPGGA,164407.000,3012.5928,N,09201.3467,W,1,4,2.71,23.5,M,-25.6,M,,*5C
$GPGSA,A,3,22,29,24,18,,,,,,,,,2.86,2.71,0.92*05
$GPRMC,164407.000,A,3012.5928,N,09201.3467,W,1.37,292.45,220114,,,A*7F
$GPVTG,292.45,T,,M,1.37,N,2.55,K,A*32
$GPGGA,164408.000,3012.5924,N,09201.3470,W,1,4,2.71,23.5,M,-25.6,M,,*59
$GPGSA,A,3,22,29,24,18,,,,,,,,,2.86,2.71,0.92*05
$GPRMC,164408.000,A,3012.5924,N,09201.3470,W,1.33,292.90,220114,,,A*76
$GPVTG,292.90,T,,M,1.33,N,2.46,K,A*3C
$GPGGA,164409.000,3012.5919,N,09201.3468,W,1,4,2.71,23.5,M,-25.6,M,,*5F
$GPGSA,A,3,22,29,24,18,,,,,,,,,2.86,2.71,0.92*05
$GPRMC,164409.000,A,3012.5919,N,09201.3468,W,1.16,294.16,220114,,,A*7F
$GPVTG,294.16,T,,M,1.16,N,2.14,K,A*34
$GPGGA,164410.000,3012.5913,N,09201.3469,W,1,4,2.71,23.5,M,-25.6,M,,*5C
$GPGSA,A,3,22,29,24,18,,,,,,,,,2.86,2.71,0.92*05
$GPGSV,3,1,10,15,68,066,,21,56,331,,29,49,194,30,18,47,288,16*77
$GPGSV,3,2,10,26,31,044,,24,18,139,14,22,17,266,16,05,12,063,*7E
$GPGSV,3,3,10,06,06,322,,02,01,120,*7B
$GPRMC,164410.000,A,3012.5913,N,09201.3469,W,1.11,293.48,220114,,,A*77
$GPVTG,293.48,T,,M,1.11,N,2.06,K,A*3C
$GPGGA,164411.000,3012.5854,N,09201.3490,W,1,4,2.71,23.4,M,-25.6,M,,*58
$GPGSA,A,3,22,29,24,18,,,,,,,,,2.86,2.71,0.92*05
$GPRMC,164411.000,A,3012.5854,N,09201.3490,W,1.08,259.09,220114,,,A*79
$GPVTG,259.09,T,,M,1.08,N,2.01,K,A*30
$GPGGA,164412.000,3012.5820,N,09201.3501,W,1,4,2.71,23.4,M,-25.6,M,,*51
$GPGSA,A,3,22,29,24,18,,,,,,,,,2.86,2.71,0.92*05
$GPRMC,164412.000,A,3012.5820,N,09201.3501,W,1.08,242.92,220114,,,A*78
$GPVTG,242.92,T,,M,1.08,N,2.00,K,A*39
$GPGGA,164413.000,3012.5793,N,09201.3502,W,1,4,2.71,23.4,M,-25.6,M,,*54
$GPGSA,A,3,22,29,24,18,,,,,,,,,2.86,2.71,0.92*05
$GPRMC,164413.000,A,3012.5793,N,09201.3502,W,1.14,222.76,220114,,,A*7C
$GPVTG,222.76,T,,M,1.14,N,2.11,K,A*38
$GPGGA,164414.000,3012.5773,N,09201.3503,W,1,4,2.71,23.4,M,-25.6,M,,*5C
$GPGSA,A,3,22,29,24,18,,,,,,,,,2.86,2.71,0.92*05
$GPRMC,164414.000,A,3012.5773,N,09201.3503,W,1.33,214.12,220114,,,A*76
$GPVTG,214.12,T,,M,1.33,N,2.46,K,A*38
$GPGGA,164415.000,3012.5757,N,09201.3509,W,1,4,2.71,23.3,M,-25.6,M,,*56
$GPGSA,A,3,22,29,24,18,,,,,,,,,2.86,2.71,0.92*05
$GPGSV,3,1,10,15,68,066,,21,56,331,,29,49,194,30,18,47,288,15*74
$GPGSV,3,2,10,26,31,044,,24,18,139,17,22,17,266,17,05,12,063,*7C
$GPGSV,3,3,10,06,06,322,,02,01,120,*7B
$GPRMC,164415.000,A,3012.5757,N,09201.3509,W,1.33,212.37,220114,,,A*7A
$GPVTG,212.37,T,,M,1.33,N,2.46,K,A*39
$GPGGA,164416.000,3012.5762,N,09201.3505,W,1,4,2.70,23.3,M,-25.6,M,,*5E
$GPGSA,A,3,22,29,24,18,,,,,,,,,2.86,2.70,0.92*04
$GPRMC,164416.000,A,3012.5762,N,09201.3505,W,1.15,209.60,220114,,,A*7F
$GPVTG,209.60,T,,M,1.15,N,2.14,K,A*32
$GPGGA,164417.000,3012.5767,N,09201.3501,W,1,4,2.70,23.3,M,-25.6,M,,*5E
$GPGSA,A,3,22,29,24,18,,,,,,,,,2.85,2.70,0.92*07
$GPRMC,164417.000,A,3012.5767,N,09201.3501,W,0.98,207.14,220114,,,A*76
$GPVTG,207.14,T,,M,0.98,N,1.81,K,A*34
$GPGGA,164418.000,3012.5767,N,09201.3499,W,1,4,2.71,23.3,M,-25.6,M,,*50
$GPGSA,A,3,22,29,24,18,,,,,,,,,2.86,2.71,0.92*05
$GPRMC,164418.000,A,3012.5767,N,09201.3499,W,1.00,203.22,220114,,,A*78
$GPVTG,203.22,T,,M,1.00,N,1.85,K,A*31
$GPGGA,164419.000,3012.5769,N,09201.3496,W,1,4,2.70,23.3,M,-25.6,M,,*51
$GPGSA,A,3,22,29,24,18,,,,,,,,,2.85,2.70,0.92*07
$GPRMC,164419.000,A,3012.5769,N,09201.3496,W,0.99,198.62,220114,,,A*7C
$GPVTG,198.62,T,,M,0.99,N,1.83,K,A*33
$GPGGA,164420.000,3012.5764,N,09201.3500,W,1,4,2.70,23.3,M,-25.6,M,,*58
$GPGSA,A,3,22,29,24,18,,,,,,,,,2.85,2.70,0.92*07
$GPGSV,3,1,10,15,68,066,,21,56,331,,29,49,194,30,18,47,288,15*74
$GPGSV,3,2,10,26,30,044,,24,18,139,18,22,17,266,17,05,12,063,*72
$GPGSV,3,3,10,06,06,322,,02,01,120,*7B
$GPRMC,164420.000,A,3012.5764,N,09201.3500,W,1.03,197.15,220114,,,A*78
$GPVTG,197.15,T,,M,1.03,N,1.91,K,A*3D
$GPGGA,164421.000,3012.5758,N,09201.3506,W,1,4,2.70,23.3,M,-25.6,M,,*50
$GPGSA,A,3,22,29,24,18,,,,,,,,,2.85,2.70,0.92*07
$GPRMC,164421.000,A,3012.5758,N,09201.3506,W,1.09,197.51,220114,,,A*7A
$GPVTG,197.51,T,,M,1.09,N,2.02,K,A*3E
$GPGGA,164422.000,3012.5751,N,09201.3512,W,1,4,2.70,23.3,M,-25.6,M,,*5F
$GPGSA,A,3,22,29,24,18,,,,,,,,,2.85,2.70,0.92*07
$GPRMC,164422.000,A,3012.5751,N,09201.3512,W,1.15,197.47,220114,,,A*7F
$GPVTG,197.47,T,,M,1.15,N,2.14,K,A*33
$GPGGA,164423.000,3012.5746,N,09201.3518,W,1,4,2.70,23.3,M,-25.6,M,,*52
$GPGSA,A,3,22,29,24,18,,,,,,,,,2.85,2.70,0.92*07
$GPRMC,164423.000,A,3012.5746,N,09201.3518,W,1.19,198.63,220114,,,A*77
$GPVTG,198.63,T,,M,1.19,N,2.21,K,A*30
$GPGGA,16444.000,3012.5744,N,09201.3524,W,1,4,2.70,23.3,M,-25.6,M,,*58
$GPGSA,A,3,22,29,24,18,,,,,,,,,2.85,2.70,0.92*07
$GPRMC,164424.000,A,3012.5744,N,09201.3524,W,1.24,201.76,220114,,,A*74
$GPVTG,201.76,T,,M,1.24,N,2.29,K,A*31
$GPGGA,164425.000,3012.5745,N,09201.3525,W,1,4,2.70,23.3,M,-25.6,M,,*59
$GPGSA,A,3,22,29,24,18,,,,,,,,,2.85,2.70,0.92*07
$GPGSV,3,1,10,15,68,066,,21,56,331,,29,49,194,29,18,47,288,14*7D
$GPGSV,3,2,10,26,30,044,,24,18,139,18,22,17,266,17,05,12,063,*72
$GPGSV,3,3,10,06,06,322,,02,01,120,*7B
$GPRMC,164425.000,A,3012.5745,N,09201.3525,W,1.25,205.39,220114,,,A*7B
$GPVTG,205.39,T,,M,1.25,N,2.32,K,A*35
$GPGGA,164426.000,3012.5746,N,09201.3529,W,1,4,2.70,23.3,M,-25.6,M,,*55
$GPGSA,A,3,22,29,24,18,,,,,,,,,2.85,2.70,0.92*07
$GPRMC,164426.000,A,3012.5746,N,09201.3529,W,1.26,206.41,220114,,,A*78
$GPVTG,206.41,T,,M,1.26,N,2.33,K,A*3B
$GPGGA,164427.000,3012.5746,N,09201.3536,W,1,4,2.70,23.3,M,-25.6,M,,*5A
$GPGSA,A,3,22,29,24,18,,,,,,,,,2.85,2.70,0.92*07
$GPRMC,164427.000,A,3012.5746,N,09201.3536,W,1.25,209.68,220114,,,A*70
$GPVTG,209.68,T,,M,1.25,N,2.31,K,A*3E
$GPGGA,164428.000,3012.5750,N,09201.3536,W,1,4,2.69,23.3,M,-25.6,M,,*5A
$GPGSA,A,3,22,29,24,18,,,,,,,,,2.85,2.69,0.92*0F
$GPRMC,164428.000,A,3012.5750,N,09201.3536,W,1.23,209.01,220114,,,A*71
$GPVTG,209.01,T,,M,1.23,N,2.28,K,A*3F
$GPGGA,164429.000,3012.5747,N,09201.3534,W,1,4,2.69,23.3,M,-25.6,M,,*5F
$GPGSA,A,3,22,29,24,18,,,,,,,,,2.85,2.69,0.92*0F
$GPRMC,164429.000,A,3012.5747,N,09201.3534,W,1.24,202.57,220114,,,A*7B
$GPVTG,202.57,T,,M,1.24,N,2.29,K,A*31
$GPGGA,164430.000,3012.5745,N,09201.3532,W,1,4,2.69,23.3,M,-25.6,M,,*53
$GPGSA,A,3,22,29,24,18,,,,,,,,,2.85,2.69,0.92*0F
$GPGSV,3,1,10,15,68,066,,21,56,331,,29,49,194,29,18,47,288,12*7B
$GPGSV,3,2,10,26,30,044,,24,18,139,20,22,17,266,15,05,11,063,*78
$GPGSV,3,3,10,06,06,322,,02,01,120,*7B
$GPRMC,164430.000,A,3012.5745,N,09201.3532,W,1.24,198.74,220114,,,A*76
$GPVTG,198.74,T,,M,1.24,N,2.29,K,A*30
$GPGGA,164431.000,3012.5750,N,09201.3529,W,1,4,2.69,23.3,M,-25.6,M,,*5C
$GPGSA,A,3,22,29,24,18,,,,,,,,,2.84,2.69,0.92*0E
$GPRMC,164431.000,A,3012.5750,N,09201.3529,W,1.20,198.07,220114,,,A*79
$GPVTG,198.07,T,,M,1.20,N,2.21,K,A*38
$GPGGA,164432.000,3012.5753,N,09201.3527,W,1,4,2.69,23.3,M,-25.6,M,,*52
$GPGSA,A,3,22,29,24,18,,,,,,,,,2.84,2.69,0.92*0E
$GPRMC,164432.000,A,3012.5753,N,09201.3527,W,1.03,194.59,220114,,,A*71
$GPVTG,194.59,T,,M,1.03,N,1.91,K,A*36
$GPGGA,164433.000,3012.5757,N,09201.3525,W,1,4,2.69,23.3,M,-25.6,M,,*55
$GPGSA,A,3,22,29,24,18,,,,,,,,,2.84,2.69,0.92*0E
$GPRMC,164433.000¢bä¬béââââââ,N,09201.3525,W,0.96,193.10,220114,,,A*71
$GPVTG,193.10,T,,M,0.96,N,1.79,K,A*37
$GPGGA,164434.000,3012.5753,N,09201.3525,W,1,4,2.69,23.3,M,-25.6,M,,*56
$GPGSA,A,3,22,29,24,18,,,,,,,,,2.84,2.69,0.92*0E
$GPRMC,164434.000,A,3012.5753,N,09201.3525,W,1.03,191.73,220114,,,A*78
$GPVTG,191.73,T,,M,1.03,N,1.90,K,A*3A
$GPGGA,164435.000,3012.5749,N,09201.3524,W,1,4,2.69,23.3,M,-25.6,M,,*5D
$GPGSA,A,3,22,29,24,18,,,,,,,,,2.84,2.69,0.92*0E
$GPGSV,3,1,10,15,68,066,,21,56,331,,29,49,194,28,18,47,288,12*7A
$GPGSV,3,2,10,26,30,044,,24,18,139,20,22,17,266,13,05,11,063,*7E
$GPGSV,3,3,10,06,06,322,,02,01,120,*7B
$GPRMC,164435.000,A,3012.5749,N,09201.3524,W,1.21,189.77,220114,,,A*7E
$GPVTG,189.77,T,,M,1.21,N,2.24,K,A*3B
$GPGGA,164436.000,3012.5744,N,09201.3524,W,1,4,2.69,23.3,M,-25.6,M,,*53
$GPGSA,A,3,22,29,24,18,,,,,,,,,2.84,2.69,0.92*0E
$GPRMC,164436.000,A,3012.5744,N,09201.3524,W,1.22,187.25,220114,,,A*7A
$GPVTG,187.25,T,,M,1.22,N,2.27,K,A*32
$GPGGA,164437.000,3012.5743,N,09201.3522,W,1,3,5.63,23.3,M,-25.6,M,,*59
$GPGSA,A,2,22,29,24,,,,,,,,,,5.72,5.63,1.00*0F
$GPRMC,164437.000,A,3012.5743,N,09201.3522,W,1.16,184.40,220114,,,A*7D
$GPVTG,184.40,T,,M,1.16,N,2.15,K,A*34
3,1.00*05
$GPRMC,164336.000,A,3012.5913,N,09201.3320,W,1.37,72.38,220114,,,A*40
$GPVTG,72.38,T,,M,1.37,N,2.54,K,A*05
$GPGGA,164337.000,3012.5914,N,09201.3317,W,1,3,3.33,24.3,M,-25.6,M,,*56
$GPGSA,A,2,29,24,18,,,,,,,,,,3.48,3.33,1.00*0A
$GPRMC,164337.000,A,3012.5914,N,09201.3317,W,1.35,71.21,220114,,,A*4B
$GPVTG,71.21,T,,M,1.35,N,2.49,K,A*00
$GPGGA,164338.000,3012.5910,N,09201.3318,W,1,3,3.32,24.3,M,-25.6,M,,*53
$GPGSA,A,2,29,24,18,,,,,,,,,,3.47,3.32,1.00*04
$GPRMC,164338.000,A,3012.5910,N,09201.3318,W,1.17,74.35,220114,,,A*4F
$GPVTG,74.35,T,,M,1.17,N,2.17,K,A*0B
$GPGGA,164339.000,3012.5908,N,09201.3317,W,1,3,3.32,24.3,M,-25.6,M,,*54
$GPGSA,A,2,29,24,18,,,,,,,,,,3.47,3.32,1.00*04
$GPRMC,164339.000,A,3012.5908,N,09201.3317,W,1.14,76.11,220114,,,A*4F
$GPVTG,76.11,T,,M,1.14,N,2.11,K,A*0A
$GPGGA,164340.000,3012.5902,N,09201.3314,W,1,3,3.32,24.3,M,-25.6,M,,*53
$GPGSA,A,2,29,24,18,,,,,,,,,,3.47,3.32,1.00*04
$GPGSV,3,1,10,15,68,067,,21,56,331,,29,50,194,28,18,47,288,16*77
$GPGSV,3,2,10,26,31,044,,24,18,139,18,22,17,266,,05,12,063,*75
$GPGSV,3,3,10,06,05,322,,02,01,120,*78
$GPRMC,164340.000,A,3012.5902,N,09201.3314,W,1.10,81.68,220114,,,A*4A
$GPVTG,81.68,T,,M,1.10,N,2.04,K,A*0C
$GPGGA,164341.000,3012.5897,N,09201.3312,W,1,3,3.32,24.3,M,-25.6,M,,*59
$GPGSA,A,2,29,24,18,,,,,,,,,,3.47,3.32,1.00*04
$GPRMC,164341.000,A,3012.5897,N,09201.3312,W,1.07,85.60,220114,,,A*4A
$GPVTG,85.60,T,,M,1.07,N,1.98,K,A*00
$GPGGA,164342.000,3012.5893,N,09201.3309,W,1,3,3.31,24.3,M,-25.6,M,,*57
$GPGSA,A,2,29,24,18,,,,,,,,,,3.46,3.31,1.00*06
$GPRMC,164342.000,A,3012.5893,N,09201.3309,W,1.04,85.76,220114,,,A*43
$GPVTG,85.76,T,,M,1.04,N,1.93,K,A*0F
$GPGGA,164343.000,3012.5886,N,09201.3311,W,1,3,3.31,24.3,M,-25.6,M,,*5B
$GPGSA,A,2,29,24,18,,,,,,,,,,3.46,3.31,1.00*06
$GPRMC,164343.000,A,3012.5886,N,09201.3311,W,0.99,89.17,220114,,,A*41
$GPVTG,89.17,T,,M,0.99,N,1.84,K,A*07
$GPGGA,164344.000,3012.5879,N,09201.3312,W,1,3,3.31,24.3,M,-25.6,M,,*5F
$GPGSA,A,2,29,24,18,,,,,,,,,,3.46,3.31,1.00*06
$GPRMC,164344.000,A,3012.5879,N,09201.3312,W,0.95,96.92,220114,,,A*4A
$GPVTG,96.92,T,,M,0.95,N,1.76,K,A*05
$GPGGA,164345.000,3012.5870,N,09201.3316,W,1,3,3.31,24.3,M,-25.6,M,,*53
$GPGSA,A,2,29,24,18,,,,,,,,,,3.46,3.31,1.00*06
$GPGSV,3,1,10,15,68,067,,21,56,331,,29,49,194,27,18,47,288,16*70
$GPGSV,3,2,10,26,31,044,,24,18,139,18,22,17,266,,05,12,063,*75
$GPGSV,3,3,10,06,05,322,,02,01,120,*78
$GPRMC,164345.000,A,3012.5870,N,09201.3316,W,0.90,103.37,220114,,,A*71
$GPVTG,103.37,T,,M,0.90,N,1.66,K,A*33
$GPGGA,164346.000,3012.5863,N,09201.3318,W,1,3,3.31,24.3,M,-25.6,M,,*5C
$GPGSA,A,2,29,24,18,,,,,,,,,,3.46,3.31,1.00*06
$GPRMC,164346.000,A,3012.5863,N,09201.3318,W,0.85,108.10,220114,,,A*74
$GPVTG,108.10,T,,M,0.85,N,1.58,K,A*34
$GPGGA,164347.000,3012.5856,N,09201.3321,W,1,3,3.31,24.3,M,-25.6,M,,*51
$GPGSA,A,2,29,24,18,,,,,,,,,,3.45,3.31,1.00*05
$GPRMC,164347.000,A,3012.5856,N,09201.3321,W,0.81,112.57,220114,,,A*75
$GPVTG,112.57,T,,M,0.81,N,1.50,K,A*30
$GPGGA,164348.000,3012.5851,N,09201.3328,W,1,3,3.31,24.3,M,-25.6,M,,*50
$GPGSA,A,2,29,24,18,,,,,,,,,,3.45,3.31,1.00*05
$GPRMC,164348.000,A,3012.5851,N,09201.3328,W,0.76,112.27,220114,,,A*7B
$GPVTG,112.27,T,,M,0.76,N,1.41,K,A*3F
$GPGGA,164349.000,3012.5846,N,09201.3335,W,1,3,3.31,24.3,M,-25.6,M,,*5B
$GPGSA,A,2,29,24,18,,,,,,,,,,3.46,3.31,1.00*06
$GPRMC,164349.000,A,3012.5846,N,09201.3335,W,0.59,120.94,220114,,,A*74
$GPVTG,120.94,T,,M,0.59,N,1.08,K,A*36
$GPGGA,164350.000,3012.5841,N,09201.3342,W,1,3,3.30,24.3,M,-25.6,M,,*55
$GPGSA,A,2,29,24,18,,,,,,,,,,3.45,3.30,1.00*04
$GPGSV,3,1,10,15,68,067,,21,56,331,,29,49,194,27,18,47,288,13*75
$GPGSV,3,2,10,26,31,044,,24,18,139,16,22,17,266,,05,12,063,*7B
$GPGSV,3,3,10,06,05,322,,02,01,120,*78
$GPRMC,164350.000,A,3012.5841,N,09201.3342,W,0.54,120.94,220114,,,A*76
$GPVTG,120.94,T,,M,0.54,N,0.99,K,A*32
$GPGGA,164351.000,3012.5835,N,09201.3347,W,1,3,3.30,24.3,M,-25.6,M,,*52
$GPGSA,A,2,29,24,18,,,,,,,,,,3.45,3.30,1.00*04
$GPRMC,164351.000,A,3012.5835,N,09201.3347,W,0.51,120.94,220114,,A*74
$GPVTG,120.94,T,,M,0.51,N,0.94,K,A*3A
$GPGGA,164352.000,3012.5831,N,09201.3353,W,1,3,3.30,24.3,M,-25.6,M,,*50
$GPGSA,A,2,29,24,18,,,,,,,,,,3.45,3.30,1.00*04
$GPRMC,164352.000,A,3012.5831,N,09201.3353,W,0.45,120.94,220114,,,A*73
$GPVTG,120.94,T,,M,0.45,N,0.83,K,A*39
$GPGGA,164353.000,3012.5829,N,09201.3353,W,1,3,3.30,24.3,M,-25.6,M,,*58
$GPGSA,A,2,29,24,18,,,,,,,,,,3.45,3.30,1.00*04
$GPRMC,164353.000,A,3012.5829,N,09201.3353,W,0.41,120.94,220114,,,A*7F
$GPVTG,120.94,T,,M,0.41,N,0.76,K,A*37
$GPGGA,164354.000,3012.5828,N,09201.3352,W,1,3,3.30,24.3,M,-25.6,M,,*5F
$GPGSA,A,2,29,24,18,,,,,,,,,,3.45,3.30,1.00*04
$GPRMC,164354.000,A,30125828,N,09201.3352,W,0.39,120.94,220114,,,A*77
$GPVTG,120.94,T,,M,0.39,N,0.73,K,A*3D
$GPGGA,164355.000,3012.5827,N,09201.3352,W,1,3,3.30,24.3,M,-25.6,M,,*51
$GPGSA,A,2,29,24,18,,,,,,,,,,3.44,3.30,1.00*05
$GPGSV,3,1,10,15,68,067,,21,56,331,,29,49,194,27,18,47,288,13*75
$GPGSV,3,2,10,26,31,044,,24,18,139,15,22,17,266,,05,12,063,*78
$GPGSV,3,3,10,06,05,322,,02,01,120,*78
$GPRMC,164355.000,A,3012.5827,N,09201.3352,W,0.46,120.94,220114,,,A*71
$GPVTG,120.94,T,,M,0.46,N,0.86,K,A*3F
$GPGGA,164356.00,3012.5826,N,09201.3352,W,1,3,3.29,24.3,M,-25.6,M,,*5B
$GPGSA,A,2,29,24,18,,,,,,,,,,3.44,3.29,1.00*0D
$GPRMC,164356.000,A,3012.5826,N,09201.3352,W,0.49,120.94,220114,,,A*7C
$GPVTG,120.94,T,,M,0.49,N,0.90,K,A*37
$GPGGA,164357.000,3012.5825,N,09201.3351,W,1,3,3.29,24.3,M,-25.6,M,,*5A
$GPGSA,A,2,29,24,18,,,,,,,,,,3.44,3.29,1.00*0D
$GPRMC,164357.000,A,3012.5825,N,09201.3351,W,0.53,120.94,220114,,,A*76
$GPVTG,120.94,T,,M,0.53,N,0.99,K,A*35
$GPGGA,164358.000,3012.5823,N,09201.3352,W,1,3,3.29,24.3,M,-25.6,M,,*50
$GPGSA,A,2,29,24,18,,,,,,,,,,3.44,3.29,1.00*0D
$GPRMC,164358.000,A,3012.5823,N,09201.3352,W,0.59,127.01,220114,,,A*7D
$GPVTG,127.01,T,,M,0.59,N,1.09,K,A*3C
$GPGGA,164359.000,3012.5835,N,09201.3366,W,1,4,2.72,24.2,M,-25.6,M,,*58
$GPGSA,A,3,22,29,24,18,,,,,,,,,2.87,2.72,0.92*07
$GPRMC,164359.000,A,3012.5835,N,09201.3366,W,0.52,127.01,220114,,,A*77
$GPVTG,127.01,T,,M,0.52,N,0.96,K,A*30
$GPGGA,164400.000,3012.5842,N,09201.3373,W,1,4,2.72,23.9,M,-25.6,M,,*5B
$GPGSA,A,3,22,29,24,18,,,,,,,,,2.87,2.72,0.92*07
$GPGSV,3,1,10,15,68,067,,21,56,331,,29,49,194,29,18,47,288,14*7C
$GPGSV,3,2,10,26,31,044,,24,18,139,13,22,17,266,16,05,12,063,*79
$GPGSV,3,3,10,06,06,322,,02,01,120,*7B
$GPRMC,164400.000,A,3012.5842,N,09201.3373,W,0.48,127.01,220114,,,A*73
$GPVTG,127.01,T,,M,0.48,N,0.89,K,A*35
$GPGGA,164401.000,3012.5849,N,09201.3381,W,1,4,2.72,23.6,M,-25.6,M,,*53
$GPGSA,A,3,22,29,24,18,,,,,,,,,2.87,2.72,0.92*07
$GPRMC,164401.000,A,3012.5849,N,09201.3381,W,0.54,259.39,220114,,,A*78
$GPVTG,259.39,T,,M,0.54,N,1.01,K,A*38
$GPGGA,164402.000,3012.5879,N,09201.3411,W,1,4,2.72,23.5,M,-25.6,M,,*5E
$GPGSA,A,3,22,29,24,18,,,,,,,,,2.87,2.72,0.92*07
$GPRMC,164402.000,A,3012.5879,N,09201.3411,W,1.04,261.87,220114,,,A*7C
$GPVTG,261.87,T,,M,1.04,N,1.92,K,A*38
$GPGGA,164403.000,3012.5905,N,09201.3435,W,1,4,2.71,23.5,M,-25.6,M,,*50
$GPGSA,A,3,22,29,24,18,,,,,,,,,2.87,2.71,0.92*04
$GPRMC,164403.000,A,3012.5905,N,09201.3435,W,1.43,265.28,220114,,,A*73
$GPVTG,265.28,T,,M,1.43,N,2.64,K,A*30
$GPGGA,164404.000,3012.5919,N,09201.3445,W,1,4,2.72,23.5,M,-25.6,M,,*5E
$GPGSA,A,3,22,29,24,18,,,,,,,,,2.87,2.72,0.92*07
$GPRMC,164404.000,A,3012.5919,N,09201.3445,W,1.49,269.08,220114,,,A*7A
$GPVTG,269.08,T,,M,1.49,N,2.76,K,A*37
$GPGGA,164405.000,3012.5929,N,09201.3455,W,1,4,2.72,23.5,M,-25.6,M,,*5D
$GPGSA,A,3,22,29,24,18,,,,,,,,,2.87,2.72,0.92*07
$GPGSV,3,1,10,15,68,066,,21,56,331,,29,49,194,30,18,47,288,15*74
$GPGSV,3,2,10,26,31,044,,24,18,139,12,22,17,266,15,05,12,063,*7B
$GPGSV,3,3,10,06,06,322,,02,01,120,*7B
$GPRMC,164405.000,A,3012.5929,N,09201.3455,W,1.53,272.17,220114,,,A*76
$GPVTG,272.17,T,,M,1.53,N,2.84,K,A*35
$GPGGA,164406.000,3012.5934,N,09201.3465,W,1,4,2.71,23.5,M,-25.6,M,,*52
$GPGSA,A,3,22,29,24,18,,,,,,,,,2.86,2.71,0.92*05
$GPRMC,164406.000,A,3012.5934,N,09201.3465,W,1.54,274.79,220114,,,A*73
$GPVTG,274.79,T,,M,1.54,N,2.86,K,A*3E
$GPGGA,164407.000,3012.5928,N,09201.3467,W,1,4,2.71,23.5,M,-25.6,M,,*5C
$GPGSA,A,3,22,29,24,18,,,,,,,,,2.86,2.71,0.92*05
$GPRMC,164407.000,A,3012.5928,N,09201.3467,W,1.37,292.45,220114,,,A*7F
$GPVTG,292.45,T,,M,1.37,N,2.55,K,A*32
$GPGGA,164408.000,3012.5924,N,09201.3470,W,1,4,2.71,23.5,M,-25.6,M,,*59
$GPGSA,A,3,22,29,24,18,,,,,,,,,2.86,2.71,0.92*05
$GPRMC,164408.000,A,3012.5924,N,09201.3470,W,1.33,292.90,220114,,,A*76
$GPVTG,292.90,T,,M,1.33,N,2.46,K,A*3C
$GPGGA,164409.000,3012.5919,N,09201.3468,W,1,4,2.71,23.5,M,-25.6,M,,*5F
$GPGSA,A,3,22,29,24,18,,,,,,,,,2.86,2.71,0.92*05
$GPRMC,164409.000,A,3012.5919,N,09201.3468,W,1.16,294.16,220114,,,A*7F
$GPVTG,294.16,T,,M,1.16,N,2.14,K,A*34
$GPGGA,164410.000,3012.5913,N,09201.3469,W,1,4,2.71,23.5,M,-25.6,M,,*5C
$GPGSA,A,3,22,29,24,18,,,,,,,,,2.86,2.71,0.92*05
$GPGSV,3,1,10,15,68,066,,21,56,331,,29,49,194,30,18,47,288,16*77
$GPGSV,3,2,10,26,31,044,,24,18,139,14,22,17,266,16,05,12,063,*7E
$GPGSV,3,3,10,06,06,322,,02,01,120,*7B
$GPRMC,164410.000,A,3012.5913,N,09201.3469,W,1.11,293.48,220114,,,A*77
$GPVTG,293.48,T,,M,1.11,N,2.06,K,A*3C
$GPGGA,164411.000,3012.5854,N,09201.3490,W,1,4,2.71,23.4,M,-25.6,M,,*58
$GPGSA,A,3,22,29,24,18,,,,,,,,,2.86,2.71,0.92*05
$GPRMC,164411.000,A,3012.5854,N,09201.3490,W,1.08,259.09,220114,,,A*79
$GPVTG,259.09,T,,M,1.08,N,2.01,K,A*30
$GPGGA,164412.000,3012.5820,N,09201.3501,W,1,4,2.71,23.4,M,-25.6,M,,*51
$GPGSA,A,3,22,29,24,18,,,,,,,,,2.86,2.71,0.92*05
$GPRMC,164412.000,A,3012.5820,N,09201.3501,W,1.08,242.92,220114,,,A*78
$GPVTG,242.92,T,,M,1.08,N,2.00,K,A*39
$GPGGA,164413.000,3012.5793,N,09201.3502,W,1,4,2.71,23.4,M,-25.6,M,,*54
$GPGSA,A,3,22,29,24,18,,,,,,,,,2.86,2.71,0.92*05
$GPRMC,164413.000,A,3012.5793,N,09201.3502,W,1.14,222.76,220114,,,A*7C
$GPVTG,222.76,T,,M,1.14,N,2.11,K,A*38
$GPGGA,164414.000,3012.5773,N,09201.3503,W,1,4,2.71,23.4,M,-25.6,M,,*5C
$GPGSA,A,3,22,29,24,18,,,,,,,,,2.86,2.71,0.92*05
$GPRMC,164414.000,A,3012.5773,N,09201.3503,W,1.33,214.12,220114,,,A*76
$GPVTG,214.12,T,,M,1.33,N,2.46,K,A*38
$GPGGA,164415.000,3012.5757,N,09201.3509,W,1,4,2.71,23.3,M,-25.6,M,,*56
$GPGSA,A,3,22,29,24,18,,,,,,,,,2.86,2.71,0.92*05
$GPGSV,3,1,10,15,68,066,,21,56,331,,29,49,194,30,18,47,288,15*74
$GPGSV,3,2,10,26,31,044,,24,18,139,17,22,17,266,17,05,12,063,*7C
$GPGSV,3,3,10,06,06,322,,02,01,120,*7B
$GPRMC,164415.000,A,3012.5757,N,09201.3509,W,1.33,212.37,220114,,,A*7A
$GPVTG,212.37,T,,M,1.33,N,2.46,K,A*39
$GPGGA,164416.000,3012.5762,N,09201.3505,W,1,4,2.70,23.3,M,-25.6,M,,*5E
$GPGSA,A,3,22,29,24,18,,,,,,,,,2.86,2.70,0.92*04
$GPRMC,164416.000,A,3012.5762,N,09201.3505,W,1.15,209.60,220114,,,A*7F
